station,city,longitude,latitude
北京北,北京,116.35948940889922,39.95165522132587
北京东,北京,116.48556137705266,39.91619946739804
北京,北京,116.43384170680733,39.910039519869805
北京南,北京,116.38548789747735,39.871280236128875
北京大兴,北京,116.33430496477423,39.72644408532533
北京西,北京,116.32810279404168,39.90083463437583
北京朝阳,北京,116.51432269405727,39.950995496942696
重庆北,重庆,106.55731675315316,29.61545180915434
重庆西,重庆,106.44244575644157,29.506339562144955
上海,上海,121.46205586498651,31.25592270061041
上海南,上海,121.43586513902925,31.159438874262317
上海虹桥,上海,121.32701198072161,31.20045784666346
上海西,上海,121.40930502984628,31.268790485084782
天津北,天津,117.21610671609231,39.173165165035506
天津,天津,117.21865889187671,39.14483777077245
天津南,天津,117.06728084903223,39.06275683264311
天津西,天津,117.16997989595211,39.16426510926558
长春,长春,125.33080239803563,43.91754156714081
长春西,长春,125.206527669716,43.883313495679836
成都东,成都,104.02802863763932,30.860021045904805
成都南,成都,104.07423756290314,30.61257161616516
成都西,成都,103.98550698700231,30.690990834018315
长沙,长沙,113.08755916595523,28.251818487944462
长沙南,长沙,113.08755916595523,28.251818487944462
福州,福州,119.32657829862382,26.11978532532184
福州南,福州,119.39703725059786,25.99233543881834
钢城,济南,117.88793395615005,36.079629869070864
贵阳,贵阳,106.70904199102714,26.5626339511354
贵阳北,贵阳,106.68083142514001,26.625870221071548
贵阳东,贵阳,106.7516160128613,26.670900975570103
广州北,广州,113.21036229014784,23.383175221251065
广州东,广州,113.33106212182011,23.155822667249357
广州,广州,113.26443704793083,23.154980588876526
广州南,广州,113.27582396857154,22.99482601801813
哈尔滨北,哈尔滨,126.5423222364141,45.85594891830255
哈尔滨,哈尔滨,126.63751989334294,45.76648262907145
哈尔滨东,哈尔滨,126.71807993147826,45.79447857873826
哈尔滨西,哈尔滨,126.5843488308848,45.71300057843275
合肥北城,合肥,117.25991725547505,32.0696320976046
合肥,合肥,117.32361915342632,31.89105856967565
合肥南,合肥,117.29688091026073,31.804240109062725
呼和浩特东,呼和浩特,111.77254896808098,40.855067301686965
呼和浩特,呼和浩特,111.67221039854968,40.83702069134983
海口东,海口,110.34949163344854,19.989667129394093
海口,海口,110.16795567808303,20.033616690850963
杭州东,杭州,120.21939598691628,30.297148796827166
杭州,杭州,120.1896061999333,30.24920691019853
杭州南,杭州,120.30036601168585,30.177844121046636
济南,济南,116.997266827754,36.67744627312657
济南东,济南,117.16647803158256,36.753373893681655
济南西,济南,116.89803110789728,36.675264850887736
昆明,昆明,102.72821855200172,25.02211385758822
昆明南,昆明,102.86794314691076,24.876252534873547
历城,济南,117.07158975107194,36.68565553471069
拉萨,拉萨,91.076709030189,29.62936247542549
林盛堡,沈阳,126.29998043016946,45.40321568266581
莱芜北,济南,117.66659067001653,36.20884142681693
兰州,兰州,103.85705100585594,36.04043765199907
兰州新区,兰州,103.62605345074556,36.474759855424786
兰州西,兰州,103.76964075939367,36.07358743073559
南昌,南昌,115.95046017276752,28.551604186108275
南昌西,南昌,115.95046017276752,28.551604186108275
南京,南京,118.80371375406085,32.093502120303725
南京南,南京,118.80420135429166,31.974141401100464
南宁北,南宁,108.45645362609929,22.82067730699843
南宁东,南宁,108.42079520923137,22.847737946174366
南宁,南宁,108.3217581945862,22.8325206235032
南宁西,南宁,107.98122836231514,22.89426367741598
石家庄北,石家庄,114.47205350357652,38.07236348988771
石家庄东,石家庄,114.63531307407928,38.05596605561696
石家庄,石家庄,114.49082898704057,38.01689306223906
沈阳,沈阳,123.40171089841809,41.800475366867516
沈阳北,沈阳,123.44261730591761,41.82518675266087
沈阳南,沈阳,123.4148070249564,41.67444886812274
太原南,太原,112.61713077805142,37.79744314331259
太原,太原,112.59388730264183,37.866154353729904
武汉,武汉,114.43097740616616,30.61276649039458
武汉东,武汉,114.43644027146398,30.49341156406579
乌鲁木齐南,乌鲁木齐,87.41602874517912,43.47708606579323
乌鲁木齐,乌鲁木齐,87.41602874517912,43.47708606579323
吴圩机场,南宁,108.20984100605155,22.62117496806639
西安北,西安,108.94542100098575,34.38103203103255
西安,西安,108.96904589691485,34.28522026361671
西宁,西宁,101.8217123322152,36.62625817343983
雪野,济南,117.59491954456404,36.46602067154668
银川,银川,106.18045487687544,38.498036698766015
引镇,西安,109.1138928993796,34.08282335837652
章丘南,济南,117.53256537436938,36.685532751420155
郑州东,郑州,113.78516787842446,34.765421805779596
郑州航空港,郑州,113.93893595290879,34.493154939655895
郑州,郑州,113.66613628987491,34.75239428265715
郑州西,郑州,113.43156168222383,34.75125219770954
昂昂溪,齐齐哈尔,123.82271658799641,47.16704311162602
阿城北,哈尔滨,127.02993001299946,45.59492717494824
阿城,哈尔滨,127.00378941248948,45.55687825667595
安达,绥化,125.32975613190384,46.40753117808896
安德,成都,103.81858152154389,30.880348552907915
阿尔山,兴安,119.95430656016711,47.17828346551684
安吉,湖州,119.61628399803045,30.82168583634351
安靖,成都,104.04299314980783,30.74369013484197
安家,哈尔滨,127.07421270175851,45.0587456899285
安康,安康,109.02271965113603,32.71808386844273
阿克苏,阿克苏,80.31264576569119,41.151162887709745
阿克陶,阿图什,75.98167002400545,39.172905111624395
阿拉尔,阿克苏,81.2170784378916,40.56079265902646
阿里河,呼伦贝尔,123.73676501002072,50.58660424671041
阿勒泰,阿勒泰,88.09716601360482,47.72485583482127
安陆,孝感,113.70254443253323,31.263251397609036
安陆西,孝感,113.66077098055548,31.260805887210058
安庆,安庆,117.07206998519757,30.5548889322375
安庆西,安庆,116.87044693043293,30.6783117120844
安顺,安顺,105.95027512701445,26.23596268114972
鞍山,鞍山,122.9923369978525,41.11933091334193
安顺西,安顺,105.88242799830981,26.20404700613806
鞍山西,鞍山,122.9222310799206,41.124004253337034
安亭北,上海,121.16474593611288,31.32019338346831
安亭西,上海,121.16282499961035,31.317376856046163
安阳,安阳,114.47673376511405,36.088623815857204
安阳东,安阳,114.45989898087376,36.09000745271366
北安,黑河,126.51896144230476,48.24106132198734
博白,玉林,110.00060055315446,22.237100014045495
蚌埠南,蚌埠,117.44807255471189,32.90797728957311
蚌埠,蚌埠,117.38495159093392,32.94960097779598
巴楚,喀什,78.55624838002552,39.84127837892414
白城,白城,122.87014129808544,45.62346549114536
北辰,天津,117.28417590594145,39.276433298214926
宝坻北,天津,117.3422497402116,39.72159685256335
八达岭长城,北京,116.01767401150033,40.36542104765129
保定东,保定,115.60740944102162,38.86958672771328
北戴河,秦皇岛,119.42645641325625,39.85749004778257
保定,保定,115.48644020748704,38.869176589941276
巴东,恩施,110.03127635228681,40.576177036923816
八方山,长沙,113.08755916595523,28.251818487944462
北海,北海,109.13459703163478,21.4587550102773
滨海,天津,117.69125885796494,39.01086808058257
滨海北,天津,117.76893174219069,39.242654286164694
滨海西,天津,117.61831959462401,39.08678264017124
毕节,毕节,105.42580798908942,27.267424985021176
宝鸡,宝鸡,107.15980236589434,34.37955371265617
白涧,保定,115.29610148687766,39.65256200599633
宝鸡南,宝鸡,107.23910684241787,34.34006263495545
北京丰台,北京,116.30799548282855,39.85773742226655
白奎堡,哈尔滨,127.01107817356694,46.37723977154243
博克图,呼伦贝尔,121.92643659542445,48.76013494323757
博乐,博乐,82.12021701117435,44.90826081807397
巴林,呼伦贝尔,122.33961697576062,48.3207149005633
勃利,七台河,130.5657287715136,45.761998842759965
白马井,儋州,109.26058222343434,19.664675285738415
八面通,牡丹江,130.54840585773067,44.933234359740226
北票,朝阳,120.79574799364319,41.7740658799924
宝清,双鸭山,132.20817798969043,46.359583147672566
宝泉岭,鹤岗,130.5291149168933,47.43610606392469
百色,百色,106.67061652369776,23.891658926878897
白山市,白山,126.46508054852985,41.958732433590114
包头东,包头,110.03127635228681,40.576177036923816
包头,包头,109.84325436158764,40.61137829284356
北屯市,阿勒泰,87.76725343370275,47.329779219209385
宾西北,哈尔滨,127.1566720272336,45.798181892577105
本溪,本溪,124.12758486914475,41.30790288135311
步行街,成都,104.04726252640512,30.446494924426258
宾阳,南宁,109.1003518289947,23.221837075166412
白云鄂博,包头,109.96439247655809,41.77881640503953
白云北,贵阳,106.66915003995321,26.708919972120103
白云机场北,广州,113.31211596031542,23.402617997889337
白洋淀,保定,115.88141639468122,39.07486376487982
背荫河,哈尔滨,127.00416427537881,45.17571668644956
百宜,贵阳,106.93970738478016,26.82859462753824
巴彦高勒,巴彦淖尔,107.02810386117913,40.339385934883175
鲅鱼圈,营口,122.10117427430659,40.19371711271427
白银西,白银,104.10539070815862,36.556121757231786
白云西,贵阳,106.61935337232954,26.705759366140843
彬州东,咸阳,108.13148524281043,35.041869462551375
巴中,巴中,106.77186410089949,31.880359505005405
滨州,滨州,118.02403397820304,37.45930997947868
亳州,亳州,115.80372845090258,33.854213965622385
宾州,哈尔滨,127.46477303070886,45.78057590277412
亳州南,亳州,115.8052250278822,33.801005064177545
查布嘎,赤峰,120.07603702752883,43.86414612324908
赤壁,咸宁,113.93658417435863,29.72740022767462
长白山,延边,128.13493284576992,42.46849518778567
常德,常德,111.70148580181093,29.076683116615676
承德,承德,118.1804557369944,40.77436719493557
承德南,承德,117.9714540007708,40.891052949095176
曹妃甸东,唐山,118.59732096652988,39.22352311778064
赤峰,赤峰,118.90858912573975,42.28222156964526
曹妃甸港,唐山,118.47213257167606,39.079293963902536
赤峰南,赤峰,118.96631001577505,42.26276291666581
嵯岗,呼伦贝尔,118.10608429542937,49.2630366643296
长葛北,许昌,113.74191249184692,34.25630284809384
柴沟堡,张家口,114.42217814437372,40.67575677790782
城固,汉中,107.32939292413975,33.14348067863778
成高子,哈尔滨,126.84242607508673,45.70622915769401
草海,毕节,104.26122756870346,26.88534161527427
巢湖东,合肥,117.93183836845857,31.623734247500927
柴河,牡丹江,129.6936618768481,44.77359530097061
巢湖,合肥,117.89749138779291,31.620276897460904
从江,凯里,109.12190900529383,25.915483675130204
蔡家崖,吕梁,111.02857503963378,38.50011809442433
长乐东,福州,119.56378512100189,25.862320056888173
长乐,福州,119.49187235139095,25.93040853052099
长临河,合肥,117.48938355901309,31.704361301634105
慈利,张家界,111.12557944463778,29.42336897184537
崇礼,张家口,115.3242475481234,41.01381569968821
昌黎,秦皇岛,119.17427950913714,39.710775965720075
长流,海口,110.2130070875181,19.99776594722156
长乐南,福州,119.60247900201755,25.759652000069416
晨明,伊春,129.49636999242162,46.98161806475808
苍南,温州,120.4184232812131,27.533644363669616
昌平北,北京,116.23778913434062,40.23723084047673
常平东,东莞,114.04716225887,22.968233204348145
昌平,北京,116.23761791731043,40.22641337159427
长庆桥,庆阳,107.75944689551164,35.32019708645913
长寿北,长寿,107.08174041309152,29.88659487896409
潮汕,潮州,116.59477905213312,23.545377971296716
察素齐,呼和浩特,111.13207995642667,40.71146221504912
朝天,广元,106.07860598629021,32.711097097483766
长汀南,长汀,116.36381159033363,25.77216211814876
昌图,铁岭,124.12417570990384,42.7846323105861
昌图西,铁岭,124.07298379414561,42.784120750327276
苍溪,广元,105.92264990907523,31.765874158240347
辰溪,怀化,110.26188627505843,27.884566124349263
楚雄,楚雄,101.55069902888485,25.088642042381654
曹县,菏泽,115.58858760499325,34.83187860792462
城西,海口,110.33839695400283,20.001949943461533
长兴南,湖州,119.91110714776082,30.995851889232586
潮阳,汕头,116.42812927669075,23.387056196077175
朝阳湖,成都,103.4522235193069,30.173562917661876
滁州北,滁州,118.33420207248538,32.314445146897356
常州北,常州,119.96207080408894,31.85973384196205
长治北,长治,113.1323122219236,36.31382481725321
长治东,长治,113.17179526434255,36.23734660087921
长征,白银,104.85470506286266,36.72932800399414
池州,池州,117.5289293929872,30.625226818065226
滁州,滁州,118.32677452320668,32.20491844638649
郴州,郴州,113.03939552791759,25.81497014681251
沧州,沧州,116.88441549128254,38.31558890609769
常州,常州,119.97970849379405,31.7914081793179
长治,长治,113.07705206017181,36.19456466725786
崇州,成都,103.68913300263952,30.616246886740836
崇左南,崇左,107.38709394906174,22.38945551351944
郴州西,郴州,112.97657046599538,25.741648572364717
沧州西,沧州,116.77462369354753,38.312951973733085
大安北,白城,124.2450605828399,45.52280061403134
东安东,永州,111.34443002273937,26.384415658153035
定边,榆林,107.5829901391007,37.56729012922664
东岔,天水,106.54668172650798,34.44864198198419
丹东,丹东,124.39408184105952,40.129457740982275
东方,东方,108.69783864706399,19.094813357023263
丹凤,商洛,110.36089141340192,33.685564270119734
大丰,株洲,113.16313813208176,27.885447977443217
东方红,鸡西,133.09067943117574,46.206690818002095
大方南,毕节,105.57497781728,27.12295684351667
东风南,酒泉,130.41056077772154,46.828385151991114
东港北,丹东,124.13756998404091,39.91633304376757
东莞东,东莞,114.04564376323644,22.973032576101108
东莞南,东莞,114.07674202201498,22.85112098625984
大孤山,丹东,123.59164987307554,39.941755777890044
东莞,东莞,113.86522008975302,23.095002662942765
东莞西,东莞,113.63266199838756,23.015036999009205
大虎山,锦州,122.15483114038419,41.61875466837435
敦化,延边,128.2527265693267,43.385999251944256
敦煌,酒泉,94.79078595651768,40.174302085790636
德惠,长春,125.72380638746233,44.539652697947005
德惠西,长春,125.68316695636038,44.55143561041814
东京城,牡丹江,129.23164969882268,44.1243382103708
垫江,垫江,107.38512694204809,30.313043107729982
道滘,东莞,113.66663492462763,22.9992999987037
洞井,长沙,113.02085504118108,28.101844022815484
都江堰,成都,103.64463732564433,30.98271214476934
洞口,邵阳,110.6234929596726,27.101200998073594
大连北,大连,121.6140091826796,39.02249351246373
德令哈,德令哈,97.3911088501482,37.321127677461426
达连河,哈尔滨,129.47147641962061,46.15492978551135
大荔,渭南,109.9328052700802,34.840400338232
大理,大理,100.25659202688851,25.594997986634187
大连,大连,121.63926629972033,38.92805032863221
大明湖,济南,117.03529713050222,36.68725857289334
得莫利,哈尔滨,129.04006412048437,45.88381574472023
定南,赣州,115.01220629842638,24.77999625741753
定南南,赣州,115.03726749502712,24.74961257225452
大庆东,大庆,125.13099651578158,46.53986066567955
大庆,大庆,125.01816197762244,46.60453128610953
对青山,哈尔滨,126.35119076119094,45.93775840620893
大庆西,大庆,124.89181943984859,46.66198106764476
独山,都匀,107.55496398270844,25.8702582036309
砀山南,宿州,116.31014072621691,34.392623270164265
大石桥,营口,122.51016028655297,40.649938067268245
东胜西,鄂尔多斯,109.88235804958975,39.730115475097584
大同南,大同,113.37168090642034,40.05217422909405
大同,大同,113.36079164702839,40.10062085657301
大通西,西宁,101.67993349221979,36.971736674960496
党武,贵阳,106.61389544771382,26.410058314048097
定西北,定西,104.59315496956077,35.61176036507525
大兴机场,廊坊,116.42190699946286,39.518763070145724
定西,定西,104.63137301816059,35.598674886025655
东乡,抚州,116.63288598032875,28.23306219222251
大兴,齐齐哈尔,123.75731949771685,46.88237917094578
德阳,德阳,104.39636524759258,31.172484763319943
当阳,宜昌,111.81889093239083,30.85367406080724
丹阳,镇江,119.59940968834772,32.007601233707504
大冶北,黄石,115.00738870105671,30.127583134400837
大英东,遂宁,105.28680025384486,30.573441273552657
都匀东,都匀,107.59216155623665,26.17269705704331
大邑,成都,103.5417889803487,30.56611086627952
大杨树,呼伦贝尔,124.61657126548444,49.75441160735437
都匀,都匀,107.52133411934253,26.238467895677488
德州东,德州,116.46843302657172,37.416138003130854
定州东,保定,115.08128016823822,38.514932775720105
邓州东,南阳,112.27235196060566,32.60230208818494
东至,池州,117.03477368788155,30.17845088934725
达州,达州,107.45949199589444,31.20379024160185
德州,德州,116.29492980884702,37.455516503432335
定州,保定,114.98035599334494,38.53715577350476
邓州,南阳,112.0770096783057,32.68979397423849
鄂尔多斯,鄂尔多斯,107.98984168762482,39.09980800373201
二连,二连浩特,111.99568338557086,43.66327377631037
峨眉,乐山,103.5282765677502,29.590241281254627
峨眉山,乐山,103.47321233089492,29.582157582462155
恩施,恩施,109.49065453704983,30.353969494892713
鄂州,鄂州,114.87343023933953,30.36811238563339
防城港北,防城港,108.38360742723326,21.719966796297015
福鼎,宁德,120.19579155556015,27.288019101898062
肥东,合肥,117.49215797558065,31.868440991350273
丰都,丰都,107.69662460565195,29.85131703232489
福海,阿勒泰,87.46902741286817,47.128409942670025
凤凰机场,三亚,109.41528175085087,18.314964016737996
凤凰城,丹东,124.06488413268436,40.45615802653223
汾河,太原,112.54663966671683,37.95427740376772
富锦,佳木斯,132.05337946895463,47.24342720411277
涪陵北,涪陵,107.2842633004186,29.776429101698685
风陵渡,运城,110.31707602316943,34.637521022312505
涪陵,涪陵,107.34038718289972,29.7049183019926
富拉尔基,齐齐哈尔,123.65499270859966,47.21613801640761
福利区,兰州,103.6366668405154,36.10125449646787
阜宁东,盐城,119.94563010647587,33.80463114884679
富宁,文山,105.59154625393111,23.680037164841067
福清,福州,119.3918217609875,25.68180222444854
福泉,都匀,107.5437269892573,26.629837952086127
芙蓉南,长沙,113.16216343853425,28.180555259707678
抚顺北,抚顺,123.92159012078525,41.887037475382286
富顺,自贡,105.04536428709,29.215128547098146
佛山,佛山,113.11049101917581,23.053022284167355
佛山西,佛山,113.04042265043738,23.085656384212125
福田,深圳,114.06383570743519,22.543884402014253
凤县,宝鸡,106.51301952413257,33.91036231640009
阜新,阜新,121.6654200154906,42.06346486096851
肥西,合肥,117.14963399479552,31.722690932412746
阜新南,阜新,121.64459127512238,41.993086169375154
阜阳,阜阳,115.8748396625307,32.92030702519309
富阳,杭州,119.99839199077388,30.007128267800937
扶余北,松原,126.01120889516636,45.014025752227234
分宜,新余,114.66995576195153,27.810711175304984
富蕴,阿勒泰,89.51466399139646,46.94237002614855
富源,曲靖,104.27617025204314,25.688004084906186
抚远,佳木斯,134.40880272124764,48.351474872288144
富裕,齐齐哈尔,124.46689856581916,47.802939578800725
阜阳西,阜阳,115.75867699228837,32.88884412002768
丰镇,乌兰察布,113.16994771940018,40.44120546988676
凤州,宝鸡,106.66137970961628,33.97604707043428
抚州,抚州,116.36020983439258,27.925228091417917
方正,哈尔滨,128.81622129926794,45.873389868249085
广安南,广安,106.59878703930875,30.457071397397378
广安,广安,106.64853115607652,30.479768100141722
高安,宜春,115.39182373901798,28.476213865584025
贵安,贵阳,106.61362227300832,26.405285889927576
古北口,北京,117.14831088060988,40.69834489516381
藁城南,石家庄,114.86081704184336,37.99215305784976
格尔木,格尔木,94.91348406883677,36.388896638384836
贵港,贵港,109.61990496629012,23.10656799687821
甘谷,天水,105.33923874815927,34.76921496254915
古交,太原,112.17041305980834,37.92411289990483
皋兰,兰州,103.94942870212728,36.34338863319713
桂林北,桂林,110.48492125005468,24.72498154945324
高楞,哈尔滨,129.28122896684982,45.9943305888534
桂林,桂林,110.48492125005468,24.72498154945324
广南县,文山,105.05983095834011,24.040681388700012
桂平,贵港,110.12337529089297,23.323292765411168
共青城,九江,115.78136817413598,29.248951921703693
固始,信阳,115.67576896321158,31.921127007676013
广水,随州,114.04413237897698,31.639114100658688
谷山,长沙,112.91413697544482,28.23606601714393
观沙岭,长沙,113.08755916595523,28.251818487944462
干塘,中卫,104.53098019097646,37.46140239187984
广通北,楚雄,101.77171039105944,25.17050951244924
古田会址,龙岩,116.77863236622194,25.191544120119634
高兴,广安,106.74198196811007,30.28231107754194
高邑,石家庄,114.60400730671765,37.61143895063893
巩义,郑州,112.98802046209458,34.76609828114453
巩义南,郑州,112.922494015822,34.67721597756694
固原,固原,106.311806994986,36.02728389825468
广元,广元,105.82796096255727,32.45643212710518
赣榆,连云港,119.11856902683317,34.885065946140536
高邑西,石家庄,114.5371744547419,37.6354964253159
赣州,赣州,114.97096096027157,25.82547996570649
公主岭,长春,124.81762471443398,43.515392076906515
公主岭南,长春,124.82091394988932,43.48024619849038
冠豸山,龙岩,116.72797584056441,25.74514616657207
盖州西,营口,122.28049330156398,40.410852194235765
赣州西,赣州,114.82322590564104,25.82601584704401
淮安东,淮安,119.19479402223794,33.57424708365585
淮安,淮安,119.14746320322271,33.508999838207515
红安西,黄冈,114.63822996190073,31.01012787415476
淮北,淮北,116.80954100838147,33.9727212060477
鹤北,佳木斯,130.327359092573,46.80568999085779
淮滨,信阳,115.41938798930576,32.50709164800326
湖潮东,贵阳,106.52065143517048,26.43787264484774
韩城,渭南,110.44815918861029,35.49042169499916
合川,合川,106.28430077824267,29.965561553464113
珲春,延边,130.40968143613028,42.90718911830234
潢川,信阳,115.10902038136965,32.11819216805689
海城,鞍山,122.74879200120931,40.86946895875983
花城街,广州,113.24326497520369,23.431495980731004
河池西,河池,107.8525266946543,24.70157894628611
海城西,鞍山,122.66571931273253,40.920654491317855
邯郸,邯郸,114.48185383702928,36.60748655087627
河东机场,银川,106.39290700456287,38.327765061439614
邯郸东,邯郸,114.56573464114283,36.625652249036065
惠东南,惠州,114.7492468575415,22.934464634009426
哈达铺,陇南,104.24137520812303,34.226407956655024
花都,广州,113.20896937762453,23.38305431469516
洪洞西,临汾,111.58769458227113,36.259462204755685
横道河子,牡丹江,103.70944899022264,36.0142744100014
霍尔果斯,伊宁,80.46346155911698,44.16278514520513
鹤岗,鹤岗,130.2913547382412,47.346442372860295
黄冈东,黄冈,114.99294915862824,30.51267401866852
红果,六盘水,104.47069103388999,25.720438009024008
红光镇,成都,103.95054197214579,30.777562564289294
红河,蒙自,103.37154588174573,23.402079885197992
黑河,黑河,127.50729270507402,50.23915870579068
怀化南,怀化,110.00001997830354,27.518075967937534
黄河景区,郑州,113.53947593161243,34.93761986518891
怀化,怀化,109.97380158454524,27.563801572933894
环江,河池,107.8525266946543,24.70157894628611
河津,运城,110.73232906380616,35.593259216727944
怀集,肇庆,112.16611016227534,23.89823009192197
河口北,蒙自,103.98208577903078,22.535098072397076
宏克力,哈尔滨,129.8653419738644,46.52395438354777
河口南,兰州,103.46351935177266,36.16948990604401
汉口,武汉,114.2608472358009,30.625339158995697
呼兰,哈尔滨,126.65313468887022,46.003723207531834
葫芦岛北,葫芦岛,120.99201624926283,40.7293589909876
葫芦岛,葫芦岛,120.99201624926283,40.7293589909876
海拉尔,呼伦贝尔,119.75011480079543,49.235923226771405
哈拉海,长春,125.09535930861749,44.68050638537785
海林,牡丹江,129.39409360792237,44.573454057685026
虎林,鸡西,132.98326329219177,45.77145182465547
霍林郭勒,通辽,119.6759126995681,45.541024456497404
黄陵南,延安,109.3966555789941,35.58633575821322
海伦,绥化,127.00081521277649,47.473246899974264
侯马,临汾,111.36512241419994,35.61930833092658
黄梅东,黄冈,115.97916338479594,30.066324988848855
鲘门,汕尾,115.13175629904623,22.81869535251823
海门,南通,121.18838295916638,31.932069968109932
哈密,哈密,93.51264534639766,42.85651399838336
侯马西,临汾,111.29581410173036,35.607200354493685
淮南,淮南,117.02670501796038,32.63666512970582
桦南,桦南,130.58986534226133,46.25032728161163
淮南东,淮南,117.15657753706544,32.65222231742649
淮南南,淮南,117.04791203477883,32.549908129953494
海宁西,嘉兴,120.39800867655117,30.444790314091744
鹤庆,大理,100.22327683994261,26.561818649362717
怀柔北,北京,116.69993902260072,40.41419956777077
怀仁东,朔州,113.16876096799096,39.80032800354602
怀柔南,北京,116.71213899956228,40.284646065784464
怀柔,北京,116.65520466583152,40.32348132756709
华山北,渭南,110.1048778464497,34.58747005506517
衡水北,衡水,115.68122940308452,37.7792848601041
黄山北,黄山,118.27941925412198,29.821334004396096
华山,华阴,110.07279297871926,34.527357989365484
和硕,库尔勒,86.88493588530035,42.30981596896652
黑水,白城,122.8314229831469,45.22006567410694
衡水,衡水,115.698200999254,37.75013599554265
黄石,黄石,114.94758877274913,30.160164854594143
黄山,黄山,118.32902601996089,29.728912260082996
黑山寺,北京,116.80310464940247,40.49664717955371
海石湾,兰州,102.87204904297396,36.34711598104261
花山镇,广州,113.27486053591241,23.432486331360533
花土沟,茫崖,90.81314997361834,38.25721107936348
和田,和田,79.91312699521448,37.163998642606515
会同,怀化,109.73910175318358,26.88772892999404
花溪大学城,贵阳,106.63271773288872,26.399656512531454
环县,庆阳,107.3812399741064,36.52294492598405
花溪南,贵阳,106.68656306344452,26.403741608733974
花溪西,贵阳,106.52516343455349,26.527270143457507
惠阳,惠州,114.49902062007521,22.79149218494193
衡阳,衡阳,112.37755268433024,26.975294950860984
河源东,河源,114.7422080910451,23.68789373786799
衡阳东,衡阳,112.37755268433024,26.975294950860984
鄠邑,西安,108.68613185282193,34.08612640780245
河源,河源,114.69021380882253,23.76512438237244
湟源,西宁,101.2483990235369,36.68984488050677
惠州北,惠州,114.38464926088812,23.185349922957787
菏泽东,菏泽,115.56791409181717,35.19075408738232
菏泽,菏泽,115.51283466913397,35.23662754033386
贺州,贺州,111.54618521817788,24.460360291824017
华州,渭南,109.76887403654761,34.5012300387284
湖州,湖州,120.03021158888721,30.868799668325718
汉中,汉中,107.03666327540041,33.09629648409412
惠州,惠州,114.42292632814728,23.157221633600432
吉安,吉安,114.91459130140301,27.044989078994433
吉安西,吉安,114.91459130140301,27.044989078994433
晋城东,晋城,112.99046600901494,35.54188293194852
金昌,金昌,102.06973421402847,38.37674734319062
晋城,晋城,112.87998952282022,35.481613652755314
金城江,河池,108.07200312220448,24.705361156607044
景德镇北,景德镇,117.24766192707526,29.345299286244078
建德,杭州,119.4343605868974,29.579063561120023
鸡东,鸡西,131.1578911348809,45.259532246740235
景德镇,景德镇,117.22852496548032,29.2920470062275
加格达奇,加格达奇,124.13279440257696,50.42600043743721
井冈山,吉安,114.30407637701111,26.733719336012992
静海,天津,116.93647876338544,38.93844386087497
精河南,博乐,82.92772099172876,44.61201703617334
金华南,金华,119.89631958508403,29.45533475642756
金华,金华,119.64233160731014,29.11706828332039
蛟河西,吉林,127.30662869096251,43.73480777824504
金华镇,贵阳,106.55883830302545,26.560871172794837
晋江,泉州,118.46574704056776,24.800549507942915
九江,九江,116.01344252798448,29.70988762551138
军粮城北,天津,117.43407174469448,39.071578368630036
吉林,吉林,126.58358438259229,43.86475714658046
即墨北,青岛,120.40044748618021,36.41022512612185
江门,江门,113.07809596656348,22.493469005825016
荆门,荆门,112.21836999776401,31.057062863842493
剑门关,广元,105.49199595945323,32.286797027780814
佳木斯,佳木斯,130.39041501903245,46.809604809300446
建宁县北,建宁,116.85250622659105,26.83682465534918
济宁,济宁,116.6072069448057,35.39900641431828
江宁,南京,118.90506507322412,31.94260470268332
集宁南,乌兰察布,113.10604765525342,41.0364881814115
江宁西,南京,118.60220298748497,31.829500971663695
经棚,赤峰,117.54413626798231,43.27874298238962
建平,朝阳,119.56877279926883,41.38584318188731
酒泉南,酒泉,98.54206601870729,39.70770512245919
酒泉,酒泉,98.45865781312253,39.65095814393825
金山北,上海,121.09593178150433,30.900586646548497
吉首东,吉首,109.736709026628,28.22462500898289
吉首,吉首,109.73138782411085,28.293268519780767
江山,衢州,118.65073078230998,28.778587425100934
尖山,长沙,112.89407996934686,28.242478028219235
建三江,佳木斯,132.64209889679384,47.253383599483
界首南,阜阳,115.33163198505271,33.22887210237976
九台,长春,125.84526079580283,44.15554223746126
九台南,长春,125.81758921321237,44.02840576594163
绩溪北,宣城,118.57809875573572,30.07713315029699
介休东,晋中,111.9939351932179,37.05943345214717
介休,晋中,111.92568652192787,37.024146505974336
靖西,百色,106.39726700795153,23.153161591603936
嘉兴,嘉兴,120.76970793108181,30.770486485458555
鸡西,鸡西,130.98459901894998,45.310362193860065
井陉,石家庄,114.14305090715811,38.041134640019955
进贤,南昌,116.25274608525272,28.360068782185845
嘉兴南,嘉兴,120.80633084102568,30.696764172179368
进贤南,南昌,115.95046017276752,28.551604186108275
绩溪县,宣城,118.58544384056862,30.073292199532997
鸡西西,鸡西,130.82923717082886,45.31653828987165
金阳,贵阳,106.59467970472568,26.653506688654044
巨野,菏泽,116.09474332425394,35.38487413064603
嘉峪关,嘉峪关,98.26089298052325,39.77091110801979
嘉峪关南,嘉峪关,98.31682660191589,39.72407722187771
金阳南,贵阳,106.59184932372578,26.60926620059551
简阳南,成都,104.52543261546904,30.359483958173374
江油,绵阳,104.7769053378989,31.787260097017892
锦州北,锦州,121.13333264158172,41.18651459915425
蓟州北,天津,117.40487600714523,40.03277705390552
荆州,荆州,112.22001263921956,30.376096657332685
金寨,六安,115.98212779297886,31.631425417428776
锦州,锦州,121.14595464247186,41.131229356461624
金州,大连,121.7333026272853,39.0926846144609
晋州,石家庄,115.03853627681804,38.026621106569024
蓟州,天津,117.37582301034152,40.00136505521386
锦州南,锦州,121.13155363734975,41.02251473457456
焦作,焦作,113.24168190589947,35.22769797523713
焦作西,焦作,113.06884496137154,35.21328390754237
库车,阿克苏,83.02447568159747,41.7003092115915
库都尔,呼伦贝尔,119.78486907317954,49.172732795190655
库尔勒,库尔勒,86.2029707285792,41.7535601491828
开封北,开封,114.26814183586411,34.84535575993252
开福寺,长沙,113.29503647765985,28.118114922373497
开化,衢州,118.36824298427484,28.997499048493726
康金井,哈尔滨,126.8235630966659,46.2021400443227
凯里,凯里,107.98306943945722,26.609732469717542
凯里南,凯里,107.89417896520499,26.520496940321973
开鲁,通辽,121.29056997194559,43.639422100974144
克拉玛依,克拉玛依,84.90121320749164,45.53462182432973
喀什,喀什,76.05490303324814,39.499008293282955
昆山,苏州,120.96346495608645,31.372020874733106
克山,齐齐哈尔,125.85717195784193,48.02216888619931
昆山南,苏州,120.9572078090567,31.35929413884147
奎屯,伊宁,81.28424240527833,43.915299436243146
开阳,贵阳,106.98113953838454,27.046962899901096
开原,铁岭,124.03864301178798,42.552446440314164
开原西,铁岭,123.92555092943985,42.55543164454797
喀左,朝阳,119.81248200615921,41.22955295191236
隆安东,南宁,107.71238088429176,23.140957540029785
六安,六安,116.50627872753763,31.721344003759494
灵宝,三门峡,110.90436373168316,34.5168753510307
来宾北,来宾,109.25057132717335,23.757199170633616
灵宝西,三门峡,110.69544014803893,34.58351535803553
绿博园,郑州,113.9399997262937,34.785952064260215
临沧,临沧,100.11923213140317,23.93685763023858
隆昌北,内江,105.29725454183767,29.471227716682083
乐昌东,韶关,113.40275435742839,25.1195391372977
陆川,玉林,110.26406996592192,22.315908533659965
龙川,河源,115.24402041316873,24.1178241661402
利川,恩施,108.94697515934855,30.28477364984839
潞城,长治,113.22877909470691,36.326382396626734
聊城,聊城,115.95019455921852,36.463645060626014
龙川西,河源,115.18734901347948,24.08354800323146
两当,陇南,106.31675063969907,33.781608915926924
龙洞堡,贵阳,106.80673100842449,26.549591004766725
娄底,娄底,112.01243802687023,27.745505961469004
娄底南,娄底,112.01994884906722,27.668986944044452
离堆公园,成都,103.63048973250659,30.999329134092598
廊坊,廊坊,116.71521668407001,39.515411149162006
娄烦,太原,111.85051999990552,38.080198071126325
廊坊北,廊坊,116.71258833197837,39.518529218866355
陆丰,汕尾,115.73989601383998,22.953469407946823
临汾,临汾,111.54395977004289,36.09429813109551
临汾西,临汾,111.47352516212489,36.1074078546152
芦官,贵阳,106.49962729384063,26.429290339419474
麓谷,长沙,112.8709257845155,28.254048831806642
临河,巴彦淖尔,107.43692045300634,40.74988001224837
柳河,通化,125.77202985266283,42.297218294208406
漯河,漯河,114.04960099343006,33.57661045428367
珞璜南,江津,106.44855001187152,29.306921990621177
隆回,邵阳,111.04141899804677,27.152140006085606
隆化,承德,117.75725709429135,41.33432909785739
漯河西,漯河,113.97047923224727,33.578308064399586
丽江,丽江,100.25922046880984,26.816386290138652
龙嘉,长春,125.70705721173712,43.998335527991934
庐江,合肥,117.18331434294223,31.34730327460147
连江,福州,119.57367708161338,26.199932421560096
庐江西,合肥,117.22532503740516,31.274006870713485
兰考,开封,114.8256502675693,34.8205282267917
兰考南,开封,114.83141334656857,34.77805188244326
林口,林口,130.27486184907792,45.298348751743205
龙口市,烟台,120.52888460291089,37.62517735365912
吕梁,吕梁,111.14419639097581,37.57422500265449
醴陵,株洲,113.51974113310692,27.674689119407457
兰棱,哈尔滨,126.1962297369884,45.22735472674003
拉林,哈尔滨,126.90306645802981,45.235677183473804
柳林南,吕梁,110.9379162509558,37.44885834808792
陇南,陇南,104.96602595623675,33.38029810988172
辽宁朝阳,朝阳,120.41694998721238,41.605404883837835
梁平,梁平,107.82395349553876,30.720897861919347
滦平,承德,117.32297488871455,40.92902393039715
罗平,曲靖,104.32202255000435,24.913477386906195
梁平南,梁平,107.77637896623868,30.64872915174565
临平南,杭州,120.30265013310608,30.38618837948734
六盘水,六盘水,104.8585618360129,26.596951768938062
灵丘,大同,114.22923945812681,39.46836666256244
龙桥,合肥,117.4501990235151,31.14065382899136
龙山北,吉首,109.47112545184349,29.493845315752672
灵石东,晋中,111.92203410155486,36.88542746422073
乐山,乐山,103.7185953459144,29.60778592242307
陵水,陵水,110.0399847819543,18.54205405304169
丽水,丽水,119.96046767136092,28.447553139906702
庐山,九江,116.05142593917256,29.4545391657173
溧水,南京,119.103067866953,31.68451415658573
岚山西,日照,119.28299001652978,35.193642929342715
黎塘,南宁,109.1397070425266,23.200297010050754
芦台,天津,117.85211698834787,39.33562426217485
临潼,西安,109.21867996762688,34.39461400268141
乐同,广州,113.18150790870193,23.429724405699083
灵武北,银川,106.3231150444067,38.141302833081845
洛湾三江,贵阳,109.57938402169833,25.84063053432852
泸县,泸州,105.33057161522514,29.16968505785183
澧县,常德,111.61108797091345,29.82540773151507
陇西,定西,104.64059196828728,35.00429580789793
陇县,宝鸡,106.85727202438001,34.87662980311794
莱西,青岛,120.53675115409231,36.828474373202155
兰溪,金华,119.48624824025595,29.219678727578145
良乡,北京,116.16388032986279,39.74786234723777
略阳,汉中,106.15291696214487,33.336730108046304
辽阳,辽阳,123.11242122079864,41.21167877180807
耒阳,衡阳,112.82879364015865,26.41018491477803
溧阳,常州,119.5090238947142,31.39203986441273
龙岩,龙岩,117.01204699189091,25.10460400890241
洛阳,洛阳,112.44253117845179,34.691796263015064
临沂北,临沂,118.3869019737032,35.19999089365015
连云港东,连云港,119.34754386742671,34.72384331172858
连云港,连云港,119.16938077969957,34.61548027253978
临沂,临沂,118.35053254801237,35.04302712979171
洛阳龙门,洛阳,112.4651789874777,34.59988969501814
柳园南,酒泉,95.4789857128003,41.10796680530996
辽源,辽源,125.14993666835116,42.894926486883854
柳园,酒泉,95.5125623066606,41.11341691922611
涟源,娄底,111.68254458098654,27.6900871849421
涞源,保定,114.71948016815887,39.376930518270115
罗源,福州,119.58317109288411,26.461143439156604
耒阳西,衡阳,112.7952032124046,26.4205138477059
泸州,泸州,105.42896131092006,28.932949169275787
林芝,林芝,94.44430996218581,29.53347380110543
柳州,柳州,109.39437000706045,24.313726036959842
六枝,六盘水,105.47139636489189,26.23234265426714
阆中,南充,105.96405002528303,31.56264184388957
立志,大庆,124.57681172462928,46.000638444926764
辽中,沈阳,122.77735784693496,41.5657109113923
马鞍山东,马鞍山,118.54683538839417,31.698738976929413
麻城北,黄冈,114.99123369213788,31.192055685790592
麻城,黄冈,114.96930494913066,31.15202973262452
渑池南,三门峡,111.78129756544267,34.69123863863373
免渡河,呼伦贝尔,121.0670436140307,49.09843700308323
牡丹江,牡丹江,129.6192668195977,44.59722398615015
帽儿山,哈尔滨,127.52851400495022,45.28283144586958
帽儿山西,哈尔滨,127.48448598580325,45.285942110477606
明光,滁州,117.99450299303747,32.77654011028831
孟关,贵阳,106.74583002707345,26.423320857902986
磨憨,勐腊,101.72529243011878,21.257305623373078
漠河,加格达奇,122.5133551902078,52.99414512904564
梅河口,通化,125.69138797889605,42.541512747000084
民和南,海东,102.85642400676394,36.31243891296425
米兰,库尔勒,86.18149430993829,41.7323732214122
勐腊,勐腊,101.59479294915548,21.43061666185154
美兰,海口,110.46796896745927,19.948111958247953
弥勒,蒙自,103.41678293026337,24.341546194627373
穆棱,牡丹江,130.36717101431216,44.618919058807435
茂名,茂名,110.93586396845387,21.647128985969328
茂名西,茂名,110.8543229807291,21.686620015573705
冕宁,西昌,102.19912424239631,28.289809088574124
闽清北,福州,118.88363804502706,26.29279449120948
民权,商丘,115.14740587411652,34.65056443372082
眉山东,眉山,103.83014702532374,30.07240411596221
名山,雅安,103.19622702015936,30.06403123149274
密山,鸡西,131.87847318785282,45.55609840611229
庙山,武汉,114.37997997355086,30.419420987874727
麻尾,都匀,107.52540443143744,26.266117957788534
岷县,定西,104.07670404034188,34.397632032420574
勉县,汉中,106.69829377793782,33.1776344731021
绵阳,绵阳,104.7240598213579,31.465173632270012
密云北,北京,116.86870502621854,40.403071037938936
孟塬,渭南,110.14628730503479,34.56076384081712
墨玉,和田,79.73947546725009,37.22905424100493
门源,海北州,101.53424073511741,37.43290315783934
暮云,长沙,113.01279795940366,27.99588001566426
密云,北京,116.85869333370523,40.35865445425896
梅州,梅州,116.13752331210354,24.264749783170394
蒙自,蒙自,103.43747728412043,23.38016438261039
满洲里,呼伦贝尔,117.45684198300778,49.59071995747283
梅州西,梅州,116.05474598650578,24.25605498564345
宁安,牡丹江,129.46894069250538,44.366150377899345
农安,长春,125.16768197505637,44.44235710624506
宁波,宁波,121.54282564022029,29.867603409667925
南部,南充,106.02072070634661,31.376586294812775
南充北,南充,106.07652137852376,30.86336123080642
南充,南充,106.09224675545923,30.81399110315102
南城,抚州,116.62304243838423,27.569832474740306
南岔,伊春,129.28640338624842,47.13931366535456
南丹,河池,107.56528308758982,24.981618949689942
宁德,宁德,119.59012352837628,26.67476293282072
宁东,银川,106.55303256680243,38.15245368307987
南丰,抚州,116.60744749541395,27.291557612357657
宁海,宁波,121.42676905989703,29.342256974487956
南湖东,武汉,114.32041737755901,30.519958102593147
讷河,齐齐哈尔,124.85340484200296,48.4867783639772
牛河梁,朝阳,119.40646201904569,41.20242793899954
内江北,内江,105.09158129708814,29.615172043766762
嫩江,黑河,125.25626575813207,49.18397574491203
南江,贵阳,106.97963963767502,26.899945196474913
牛家,哈尔滨,126.74326778916436,45.356447351738225
牛栏山,北京,116.65477105376186,40.20956895366175
宁陵县,商丘,115.32391742716356,34.58087234837178
奈曼,通辽,120.68374501689536,42.84696133373809
南平市,南平,118.10034627280292,27.479149200620327
宁强南,汉中,106.29545100758253,32.8276461355888
那曲,那曲,91.99761384786906,31.44876761818412
南通,南通,120.86679758151331,32.07436504034747
南通西,南通,120.77207602650533,32.10736101803993
宁武,忻州,112.32657529813787,39.013944032015694
南翔北,上海,121.31536958199008,31.287841848563783
南雄,韶关,114.31755302575901,25.15096375284617
宁乡,长沙,112.58727522082576,28.294851844579075
南阳,南阳,112.51857489580465,33.00415996650968
南阳东,南阳,112.66790399361143,32.957000148798365
纳雍,毕节,105.38129497481259,26.76207461407847
南阳寨,郑州,113.62376824948012,34.82065305927016
碾子山,齐齐哈尔,122.88887779509048,47.52187475502998
蒲城东,渭南,109.617088881646,34.994761818210705
平昌,巴中,107.0824155919735,31.558315119383366
平顶山,平顶山,113.31068012330704,33.72546035525162
平度,青岛,119.98501397596652,36.81356992363797
平度西,青岛,119.89079367543313,36.768282642599196
平顶山西,平顶山,113.09447604299609,33.82230007349072
普洱,普洱,100.94758093172078,22.777066988094262
平房,哈尔滨,126.68190400079408,45.59139684982618
盘锦北,盘锦,121.81345052285214,41.34204230704953
盘锦,盘锦,122.06937120501463,41.20420214185975
蒲江,成都,103.50352502833734,30.197411081841263
普兰店,大连,121.96695269890553,39.40727415934742
平凉,平凉,106.71423097531253,35.55676988829532
平凉南,平凉,106.83338410459758,35.489282436191004
蓬莱市,烟台,120.80806933167914,37.76345484247981
普宁,揭阳,116.20555998327073,23.27287600632421
平泉北,承德,118.71898602751249,41.044813983835205
皮山,和田,78.29154954625005,37.57092936543612
磐石,吉林,126.07518604362595,42.93363193197483
坪石,韶关,113.06035012088084,25.29056643894717
平山,哈尔滨,127.41236256352603,45.32751888486475
平潭,福州,119.78702095711009,25.55302301628559
莆田,莆田,119.07055790463427,25.35723767605106
萍乡北,萍乡,113.85444051346741,27.689202819246862
萍乡,萍乡,113.84779098659308,27.65330997093651
郫县,成都,103.91432930076645,30.814556581750754
郫县西,成都,103.90544568808663,30.79953765357336
平阳,温州,120.55178895108018,27.63158135077553
平遥古城,晋中,112.15568587995554,37.16291436138466
濮阳东,濮阳,115.03558408559006,35.717888889374784
平原东,德州,116.58946002115056,37.22336992930989
彭泽,九江,116.54948891375987,29.87214437354481
普者黑,文山,104.13871504634321,24.121619981323693
盘州,六盘水,104.57477904075502,25.79747697875836
彭州,成都,103.93145747158631,30.985083171922504
攀枝花南,攀枝花,101.75412597087688,26.474536998804872
彭州南,成都,103.94686996871263,30.94698381192428
庆安,绥化,127.51023645223023,46.89362323198956
青白江东,成都,104.23228291907323,30.900401965710298
清城,清远,113.07279901829509,23.659580001666924
蕲春,蕲春,115.45307893745749,30.248498097610344
青川,广元,105.34031141476873,32.19147740997934
青城山,成都,103.6129752004869,30.898186619741082
青岛,青岛,120.3191721273678,36.070141275076935
青岛北,青岛,120.38080693451006,36.17566146632762
千岛湖,杭州,119.19814100227447,29.741921028947402
启东,南通,121.65161296997168,31.862598953720205
青岛西,青岛,119.96160602081807,35.90731491693352
曲阜东,济宁,117.07541302915295,35.562111926079886
前锋,佳木斯,133.89241942116246,47.623652545451456
曲阜,济宁,117.03689512617392,35.58880131572958
琼海,琼海,110.49785047142497,19.246515070148625
清河城,邢台,115.69284548146459,37.069924605861125
秦皇岛,秦皇岛,119.59887861013023,39.971549859734914
清河,北京,116.32222383363163,40.0472208421746
曲靖北,曲靖,103.79001359834224,25.595374515253905
綦江东,綦江,106.6686900177017,29.030203003630614
黔江,黔江,108.79751956709852,29.4491369388932
曲靖,曲靖,103.79833379380347,25.53237550595869
前进镇,佳木斯,130.327359092573,46.80568999085779
邛崃,成都,103.49140724632993,30.417003412830585
清流,三明,116.82110766428062,26.220625579749584
齐齐哈尔,齐齐哈尔,124.00262086129469,47.34614600448869
齐齐哈尔南,齐齐哈尔,115.92269139353006,28.670467686217926
潜山,安庆,116.62198146535884,30.579054118921764
庆盛,广州,113.49780091933849,22.87211138244353
七台河,七台河,130.9088767153081,45.81798156311203
青铜峡,吴忠,105.9386807098841,37.92443903055222
七台河西,七台河,130.78724596959523,45.75250091850539
渠县,达州,107.01977450299897,30.811053630812875
沁县,长治,112.71167186348242,36.76477413560021
庆阳,庆阳,107.63462069743943,35.70177880007716
清远,清远,113.14092300475784,23.700109978173465
庆元,丽水,118.96807022903475,27.619744291319247
钦州东,钦州,108.67516334989696,21.985175548298223
乔庄东,北京,116.70360806162567,39.89967035718704
衢州,衢州,118.88748800278046,28.929638043902273
泉州,泉州,118.57337823385463,24.97929306262878
全州南,桂林,111.04879390662013,25.95935519988014
清镇西,贵阳,106.38713699637995,26.80621194139678
融安,柳州,109.41806119792837,25.191362002490493
瑞安,温州,120.58880102452063,27.773116015756667
荣昌北,荣昌,105.64289842737534,29.438321469504558
荣成,威海,122.41518136701637,37.15116859389001
如东,南通,121.1836809586355,32.45153111690053
瑞金,赣州,116.06217838663177,25.86918310510931
日喀则,日喀则,88.92265425360539,29.226029898073456
饶平,潮州,116.93939851006755,23.7173211281892
若羌,库尔勒,88.258716028829,39.009634101714404
日照西,日照,119.42675707611042,35.39671695581613
双城北,哈尔滨,126.27805333165406,45.431969714780905
舒城东,六安,117.05370996803188,31.490663874739337
莎车,喀什,77.2386320935917,38.38070874037921
沙城,张家口,115.52363727177813,40.40320646494316
双城堡,哈尔滨,126.29998043016946,45.40321568266581
邵东,邵阳,111.75449939129533,27.279817011825482
双峰北,娄底,112.02050049848071,27.56428049630962
双丰,伊春,127.76682349742164,46.97999872481567
绥芬河,牡丹江,131.14332700714598,44.41256010969888
韶关东,韶关,113.61060509473339,24.799937348573163
韶关,韶关,113.52178046627502,24.756492394391227
商河,济南,117.10585471644454,37.44329944856059
山海关,秦皇岛,119.77374599460236,40.00679404863847
沙河市,邢台,114.50344002860349,36.868100932095786
绥化,绥化,127.02353308963232,46.65018454569884
石河子,石河子,86.06913731098898,44.275252822842376
三家店,北京,116.12662158171707,39.957476654912654
三间房,齐齐哈尔,123.84947764812213,47.10526506870797
松江河,白山,127.4884361143131,42.19452156243813
水家湖,合肥,117.17598596659182,32.48890495063292
松江,上海,121.23423965883974,31.00589479021562
孙家,哈尔滨,126.68995398596068,45.70152459505149
三江南,柳州,109.58295640304924,25.73219759916054
松江南,上海,121.23673685832692,30.989168824307786
苏家屯,沈阳,123.36067010441428,41.668883948254596
舒兰,吉林,126.9610369968608,44.413985125487294
双流机场,成都,103.96335899516214,30.57597183226601
双龙湖,哈尔滨,128.50443751269339,45.83596227773244
绥棱,绥化,127.08896512399622,47.255435264342175
狮岭,广州,113.15496082495761,23.460516101116276
石林,昆明,103.29357170587768,24.763572801183475
双龙南,贵阳,106.79503219611082,26.48687038018655
商洛,商洛,110.02435302189086,33.828018405045015
石林西,昆明,103.24940804261358,24.66271901233567
胜利镇,哈尔滨,128.00028321810578,45.79443440190066
石门县北,常德,111.43999598489516,29.605147149261942
三明北,三明,117.81370722534645,26.381977311427494
三明,三明,117.59542096276604,26.235091004063918
嵩明,昆明,103.14376695535287,25.24604302815787
树木岭,长沙,113.08755916595523,28.251818487944462
三门峡南,三门峡,111.16709195266137,34.75496586179479
神木,榆林,110.46167401534682,38.942950107948235
三门县,台州,121.36940003614896,29.060887980080114
三门峡西,三门峡,111.08765344895575,34.69306739498833
三门峡,三门峡,111.2400513380457,34.76670565858757
商南,商洛,110.90784816892581,33.532842053280696
遂宁,遂宁,105.54824416743546,30.54818263621788
睢宁,徐州,117.94574099368374,33.95783609809264
宋,绥化,125.62736331007257,46.23250970870414
沙坪坝,重庆,106.46651971528718,29.56010030370633
四平东,四平,124.4444958242461,43.14498289483792
山坡东,武汉,114.3665724943228,30.09259317432065
四平,四平,124.3802615904496,43.17356579317791
沈丘北,周口,115.11385694806592,33.429331338950476
宿迁,宿迁,118.2884143054172,33.880122752495005
商丘,商丘,115.66454301891449,34.45230101191419
石泉县,安康,108.2586310453705,33.03480894734204
上饶,上饶,118.01333361638811,28.49601597599074
石人城,哈尔滨,126.90348704466959,46.30558306545964
鄯善北,吐鲁番,90.20318364419973,42.92413869352498
宿松东,安庆,116.18113040074033,30.159159367542046
神树,伊春,128.43379431823553,46.94953703976064
韶山南,湘潭,112.55433947812716,27.8942662810584
宿松,安庆,116.11062401821208,30.235411512934252
三穗,凯里,108.65792495699674,26.970586237556315
松桃,铜仁,108.97933920734398,28.082854064880976
汕头,汕头,116.76177260909404,23.378527619006732
汕尾,汕尾,115.4350970018609,22.817009015149477
绍兴北,绍兴,120.54517708011481,30.10533829713717
绍兴东,绍兴,120.85955140011707,30.060892758705315
松溪,南平,118.83421565563941,27.5405297014917
涉县,邯郸,113.6750014872918,36.58339223717736
绍兴,绍兴,120.58588828582701,30.020511252757867
三亚,三亚,109.52640097460126,18.23520297956622
邵阳,邵阳,111.28050768063707,26.996528332196284
十堰,十堰,110.78840524628325,32.610024123208596
双阳,长春,125.64787100575398,43.523357093369036
十堰东,十堰,110.83113198006818,32.71346111923777
顺义,北京,116.65189000833026,40.13230706047071
松原,松原,124.82302477846918,45.11525437453922
双鸭山西,双鸭山,131.0979074132656,46.717012604842076
顺义西,北京,116.49780096928721,40.18572406117433
深圳北,深圳,114.03552911268908,22.615107645742686
苏州北,苏州,120.64981745507231,31.427326968600465
深圳机场,深圳,113.81739349594264,22.62736277907636
嵊州新昌,绍兴,120.82649481831551,29.53285103906507
深圳东,深圳,114.12614109962007,22.60818427732021
宿州东,宿州,117.2567710302569,33.681769225183864
绥中,葫芦岛,120.36009317724714,40.32826646523706
朔州,朔州,112.45488880803035,39.32201766474436
深圳,深圳,114.1236105729993,22.537960845504283
随州,随州,113.42315713587247,31.727188767633447
宿州,宿州,117.00439569045064,33.64593402218447
苏州,苏州,120.61711572094816,31.33593598865783
尚志,哈尔滨,127.96765766028867,45.214157940492015
随州南,随州,113.37148498598863,31.658054951763596
尚志南,哈尔滨,127.95989701932682,45.20182682765783
深圳坪山,深圳,114.33362640624374,22.713577388295043
石嘴山,石嘴山,106.42803631949718,38.92305042593265
石柱县,石柱,108.10383287115957,29.971676646484557
泰安,泰安,117.04172774032595,36.17806000536282
通北,黑河,126.7675789006727,47.77405398178133
铜川东,铜川,109.10127898323904,35.08472291694431
塔城,塔城,82.99260495993123,46.70469465895357
通道,怀化,109.63894760580655,26.32173327668179
潼关,渭南,110.25428410869978,34.54165219534056
太谷,晋中,112.57664477753057,37.42808836369042
塘沽,天津,117.64823244946186,39.03318360928707
吐哈,吐鲁番,90.53765719066554,43.06706744205235
通海,玉溪,102.67505961668587,24.12211460964148
塔哈,齐齐哈尔,124.23820498467936,47.55846772065429
天河机场,武汉,114.2235140181284,30.776541853546725
泰和,吉安,114.95568689202935,26.837630394681145
塔河,加格达奇,124.70467168007058,52.339252305506065
太湖南,安庆,116.36824070117741,30.414936618884116
天河潭,贵阳,106.57839540210729,26.42823633636128
通化,通化,125.76539191392739,41.68568223806826
太湖,安庆,116.30644985836808,30.465673762434132
同江,佳木斯,132.51420741082913,47.63506751505823
托克托东,呼和浩特,111.30955898450797,40.2577700862604
泰来,齐齐哈尔,123.41908726133406,46.3978899456604
吐鲁番北,吐鲁番,89.11761278625367,43.0287679033347
吐鲁番,吐鲁番,88.88118353704667,43.15647996576331
通辽,通辽,122.27732893057453,43.611233510101876
铜陵,铜陵,117.86786814665147,30.92483759808952
铁岭,铁岭,123.67987101992166,42.23897889426349
铁力,伊春,128.06090734171914,46.98047071718336
桐庐,杭州,119.73886001398901,29.79596000852896
铁岭西,铁岭,123.67987101992166,42.23897889426349
陶赖昭,松原,125.94549165850351,44.83225855669157
图们北,延边,129.8065094404364,43.00276068237554
图木舒克,喀什,75.99639055639747,39.47609674864479
天门南,天门,113.46270683256027,30.433414032474737
潼南,潼南,105.88475102842312,30.224999456907216
泰宁,三明,117.15962089051298,26.93254444495509
铜仁,铜仁,109.21029804541057,27.7463597337572
铜仁南,铜仁,108.98211901374368,27.285156956155824
唐山北,唐山,118.12592158575575,39.82266594629108
泰山,泰安,117.11634144513746,36.19351792336668
唐山,唐山,118.12497719717312,39.63124582782932
天水,天水,105.90500997360634,34.571295966173246
天水南,天水,105.86206495158248,34.555487351053685
汤旺河,伊春,129.58746418978086,48.461275559933796
汤逊湖,武汉,114.39192880984862,30.45146390277752
土溪,达州,107.06763900531767,31.02123082792427
通远堡,丹东,123.9333653789017,40.792726137329325
太阳升,大庆,124.5929520288799,45.945286787991655
通榆,白城,123.0828053457624,44.81054687138528
桐梓北,遵义,106.83811600632174,28.391410986990696
太子城,张家口,115.45563299968344,40.91941498328801
滕州东,枣庄,117.26322679263491,35.09695588285214
桐梓东,遵义,106.84316196803073,28.120495033640086
台州,台州,121.37917494755256,28.6587033101135
泰州,泰州,119.98692799551664,32.53524604299877
通州,北京,116.67175702281949,39.90355507811356
台州西,台州,121.29661240680217,28.691911428619914
通州西,北京,116.6335220860761,39.910778577025006
文昌,文昌,110.74398779802755,19.612367754761387
武昌,武汉,114.32417804374599,30.53427227078553
五常,哈尔滨,127.14951622506454,44.92681742471456
潍坊,潍坊,119.10499805600227,36.70318944667804
瓦房店,大连,122.01485699615831,39.631755066897576
瓦房店西,大连,121.84475009190574,39.662972864133266
王岗,哈尔滨,126.55210011222917,45.67676814124544
武功,咸阳,108.21148437898482,34.26385229853632
威海,威海,122.1504430077985,37.43287099242866
乌海,乌海,106.81230419800879,39.67634782818685
苇河,哈尔滨,128.3868747531676,44.95880488489558
芜湖,芜湖,118.39869196403001,31.35427086123327
乌海西,乌海,106.74417347423223,39.461139458798584
苇河西,哈尔滨,128.37074001841125,44.939563799751795
温江,成都,103.82092304468618,30.641124857511585
五家,哈尔滨,126.39983005201232,45.5502695979859
五棵树,长春,126.16711440748118,44.807146908010544
乌兰察布,乌兰察布,113.1662078040705,40.97028845943822
万乐,哈尔滨,126.46977095122246,45.8918407275198
温岭,台州,121.33127577065699,28.485403551540646
武隆,武隆,107.7776655066995,29.334259882084805
乌拉特前旗,巴彦淖尔,108.6573470900435,40.7179436521899
乌兰浩特,兴安,122.0701543380335,46.0903631727767
渭南,渭南,109.50039333657516,34.49026007325084
渭南北,渭南,109.48785802216673,34.54118201347575
五女山,本溪,125.33409145382986,41.28466858622829
渭南西,渭南,109.44707099946947,34.48489003171414
武清,天津,117.02289799920909,39.37900509874352
武胜,广安,106.11302267546344,30.37565298279549
威舍,兴义,104.74992975072715,25.28653980903007
乌审旗,鄂尔多斯,108.88261004243927,38.550390110864825
乌苏,塔城,84.72426014724387,44.41486300177256
武威,武威,102.63057041849537,37.90963458858818
武威南,武威,102.74420786211859,37.821482122848735
无为南,芜湖,117.9360680399523,31.16081685044252
武穴北,武穴,115.5759119599976,29.858079602902382
无锡东,无锡,120.4665862174884,31.603107299342987
无锡,无锡,120.31213893420798,31.592811049256888
武穴,武穴,115.64451007210835,29.974845113196867
闻喜西,运城,111.18670483652181,35.34203823361749
武夷山北,南平,118.0512460614409,27.78339768053306
五营,伊春,129.2437652253865,48.11854810794264
乌伊岭,伊春,129.4406327406131,48.59821484972779
武夷山,南平,118.0370398987886,27.735285425707534
渭源,定西,104.23468103546266,35.10211892465775
婺源,上饶,117.88349595157972,29.24530769238183
万源,达州,108.04841902213332,32.09089864202869
万州北,万州,108.37423766450216,30.869672851893593
梧州,梧州,111.24713679874957,23.49329018096718
万州,万州,108.4062369237175,30.760313030589426
吴忠,吴忠,106.25626404665965,37.981685393030794
温州,温州,120.69160939518711,27.986038512447568
梧州南,梧州,111.22892248674363,23.399759673819496
温州南,温州,120.5918234632385,27.972027553012406
兴安北,桂林,110.67310071364757,25.679602122931072
雄安,保定,116.16611010379964,39.06303263408676
西安西,西安,108.92529832874838,34.281358188460686
许昌东,许昌,113.89370707895637,34.05456639679087
兴城,葫芦岛,120.70838176415091,40.63069613010711
宣城,宣城,118.7816962860113,30.954214763670574
许昌,许昌,113.82739174078492,34.02529410607452
西昌西,西昌,102.169528938566,27.873346863355636
新都东,成都,104.20088363810801,30.80555031710573
香坊,哈尔滨,126.6860774383629,45.72671063084407
咸丰,恩施,109.06741500832949,29.602556981072507
西丰,铁岭,124.71384302971349,42.74046291596578
息烽,贵阳,106.75436949890958,27.083437839202166
先锋,长沙,112.99824603896067,28.07933898409903
湘府路,长沙,113.08755916595523,28.251818487944462
轩岗,忻州,112.43796886442772,38.900469635698265
孝感北,孝感,114.227087297786,31.592224874190663
孝感东,孝感,113.95558451841687,30.939138790448595
香港西九龙,香港,108.37680797316938,22.876405997147085
兴国,赣州,115.3252730448249,26.335919972604845
西固,兰州,103.61234512900221,36.10927497280937
宣汉,达州,107.66523045769193,31.54796709680702
兴和北,乌兰察布,113.84885100179058,40.89800595903075
下花园北,张家口,115.30624703913789,40.508587036327576
新化南,娄底,111.16641901819386,27.66222686850078
新会,江门,113.07743157980853,22.52356308562583
新晃西,怀化,109.13257449677972,27.385687345636413
新津,成都,103.87753326978894,30.471113455433763
辛集,石家庄,115.22176841270745,37.910917938033585
小金口,惠州,114.42278223994353,23.157401726289038
新津南,成都,103.86359767675154,30.35466912348692
辛集南,石家庄,115.21816791439291,37.89006062352356
西来,成都,103.52297702568094,30.316032013072032
仙林,南京,118.91939115966669,32.129105192572695
小岭,哈尔滨,127.32726778934575,45.340802942542055
锡林浩特,锡林郭勒,116.03401490737124,43.925447213055925
兴隆县,承德,117.52073343317527,40.44285686493636
兴隆镇,哈尔滨,127.12739041167741,46.44932261544228
厦门北,厦门,118.08629650513984,24.483574223267638
新民北,沈阳,122.81144701391926,42.0302918997305
厦门,厦门,118.08629650513984,24.483574223267638
新民,沈阳,122.82304898890283,42.00670691251741
咸宁南,咸宁,114.31260749460601,29.84247576789616
溆浦南,怀化,110.5991407057801,27.610793964485193
霞浦,宁德,120.03933988324698,26.91550401596451
溆浦,怀化,110.58472595658844,27.93170596172863
犀浦,成都,103.97910907549914,30.762946951110816
秀山,秀山,109.02243703112086,28.451505991706465
小市,本溪,124.12921457500096,41.31720911022099
兴山,宜昌,110.7590835663015,31.334183137509758
西双版纳,景洪,100.78014199488817,21.989594197512456
仙桃,仙桃,113.51360958377484,30.327044291582176
湘潭,湘潭,112.96210828627281,27.67821325795035
向塘,南昌,115.96859974575506,28.448176983445254
邢台东,邢台,114.59963157074799,37.09836236637712
新塘南,广州,113.60998481477895,23.13762063651796
兴文,宜宾,105.25402403833702,28.34124297712928
宣威,曲靖,104.1262988472495,26.21416010172736
修文县,贵阳,106.75865396703801,26.856827970528933
萧县北,宿州,116.94323923099243,34.226833736436404
新香坊北,哈尔滨,126.76940246085796,45.733315107590876
新乡东,新乡,113.98491095941782,35.320745910101685
西乡,汉中,107.76740498402454,33.00032914744528
西峡,南阳,111.51836695623307,33.27684580208223
新乡,新乡,113.86574201995579,35.312869923449405
小新街,昆明,103.23096017117511,25.314733749396932
信阳,信阳,114.08895782392487,32.13444074056412
旬阳,安康,109.36007469218622,32.84236706012054
咸阳,咸阳,108.74067525660733,34.35060679535453
襄阳,襄阳,112.1628035138333,32.06347279749847
新余北,新余,114.90329501978822,27.91691805613374
熊岳城,营口,122.15444406053994,40.187323271060905
信阳东,信阳,114.16595850613751,32.149747178429735
襄阳东,襄阳,112.30324603455207,32.019891035738674
兴义,兴义,104.99352415409291,25.172376037573336
秀英,海口,110.2820098753106,20.00243185817741
祥云,大理,100.56544697807435,25.456325975814618
新余,新余,114.94594647555734,27.816134127027237
咸阳西,咸阳,108.67334276710693,34.336536066665666
新郑机场,郑州,113.8610870008031,34.531319024483906
徐州东,徐州,117.31176700035822,34.27333802386079
忻州,忻州,112.75326466622212,38.425273960947536
新肇,大庆,124.41938709756558,45.716898376227256
襄州,襄阳,112.23284816732942,32.102787323313855
徐州,徐州,117.21390074725147,34.271276591678706
香樟路,长沙,113.02446775644937,28.14311071336152
忻州西,忻州,112.69990298333511,38.44921110741543
雅安,雅安,103.06272103492755,30.034302237690056
延安,延安,109.48784239165086,36.56317934579527
永安南,三明,117.39592284975116,25.94362166231608
依安,齐齐哈尔,125.29367928431738,47.88074611294769
迎宾路,成都,103.66875916418158,30.96918251410679
亚布力,哈尔滨,128.62025093143785,44.93459313397379
宜宾西,宜宾,104.61272104005907,28.72884099097785
亚布力西,哈尔滨,128.59294900156473,44.916420823238354
运城北,运城,110.99201229859722,35.10474864079724
永川东,永川,105.95596014326301,29.37738539434692
宜昌东,宜昌,111.37754409296137,30.664194611552833
岳池,广安,106.47688734092694,30.542356329850136
叶城,喀什,77.48004487227641,37.89775931485448
阳春,阳江,111.76799373666175,22.195154331681394
宜春,宜春,114.44324617843738,27.794369975620764
运城,运城,110.99681167544537,35.032459154201995
盐城,盐城,120.19146200928635,33.37942413477013
伊春,伊春,128.93424992971634,47.73447490311653
榆次,晋中,112.74695092594524,37.684985362769915
杨村,天津,117.0722211700149,39.35957128501804
永登,兰州,103.28054377193692,36.72608909746929
雁荡山,温州,121.15870499410865,28.347140023705585
于都,于都,115.42297877070474,25.981209171430994
姚渡,广元,105.50365973785588,32.80996207016239
英德西,清远,113.35874250779543,24.16534510256349
云浮东,云浮,112.1455540576362,23.017940746342497
永济北,运城,110.45457767130965,34.87282971471371
延吉,延边,129.50356156652106,42.89276579330207
阳江,阳江,111.99751699269333,21.817150020230542
永济,运城,110.46030095537482,34.87589893953394
燕郊,廊坊,116.83238500733076,39.947565061845495
英吉沙,喀什,76.17194676153466,38.973520134351695
延吉西,延边,129.42138098524623,42.91018695471899
营口东,营口,122.43365484016797,40.63153467641186
永康南,金华,120.0305072044925,28.85699917548382
牙克石,呼伦贝尔,120.74406469503798,49.28568509319333
依兰,哈尔滨,129.61357397841186,46.285707045024324
玉林,玉林,110.16343998611642,22.60393301251337
榆林,榆林,109.72726596261425,38.27943407072142
杨陵,咸阳,108.08474443085416,34.274846123730235
炎陵,株洲,113.79062255446533,26.50570952114607
阎良,西安,109.23512758219236,34.67422663927278
杨林,昆明,103.08838848678369,25.241786209236178
杨陵南,咸阳,108.05966104609904,34.25927227228161
杨柳青,天津,117.00899366720346,39.14888819326028
亚龙湾,三亚,109.60900016621645,18.30795455893454
羊马,成都,103.76483895712065,30.624143878925462
一面坡北,哈尔滨,128.09342195880575,45.09148059602282
云梦东,孝感,113.79141101188826,31.05150584807958
玉门,酒泉,97.05128409775944,40.278431783387596
一面坡,哈尔滨,128.08682273703775,45.067859566110506
元谋西,楚雄,101.84728097087523,25.714275010793177
郁南,云浮,111.47639191058651,23.25165356597102
伊宁,伊宁,81.28447668335534,43.9733593267122
延平东,南平,118.22125999101702,26.632426970455246
阳平关,汉中,106.04388405290469,32.972496299535585
玉屏,铜仁,108.9402351600326,27.24485547071119
延平,南平,118.27946767278895,26.596588903887614
原平,忻州,112.73435515557598,38.72498975596412
延平西,南平,118.11964259379526,26.573670970231518
原平西,忻州,112.68184910868723,38.744507251442904
阳泉北,阳泉,113.44497401230166,38.12004384921889
阳泉东,阳泉,113.60716639585856,37.89018941395386
雁栖湖,北京,116.66574232844688,40.379946093010915
焉耆,库尔勒,86.55175706656604,42.08130465021609
乐清,温州,120.86564827242992,28.090700250341666
延庆,北京,115.99013304253101,40.44222603136279
阳泉,阳泉,113.59890944110249,37.86303588054151
阳曲,太原,112.6886253864712,38.06440334430498
玉泉,哈尔滨,127.16911517549678,45.42268204217509
阳曲西,太原,112.65439302958859,38.07849903013095
榆社,晋中,112.97612087849555,37.05761399766092
玉山,上饶,118.2425479451549,28.66575837190545
营山,南充,106.57639596599759,31.070456870298422
榆树,长春,126.5411735828552,44.822538307014185
元氏,石家庄,114.5506927848699,37.7651679429482
玉山南,上饶,118.29922805840759,28.653977296143946
榆树屯,齐齐哈尔,123.90103355727331,47.161165462366036
银滩,儋州,109.49575294654417,19.795973628883573
烟台,烟台,121.38958336118858,37.55404888709694
鹰潭,鹰潭,117.03395163276117,28.241257885834276
永泰,福州,118.94045452105613,25.854656114502312
鹰潭北,鹰潭,117.04552908400049,28.311355347764557
伊图里河,呼伦贝尔,121.55819152280037,50.63485106021106
烟台南,烟台,121.39915274029471,37.43761606366581
烟筒山,吉林,126.03505226869555,43.29100641576295
玉田县,唐山,117.74022818623035,39.888556861844776
义乌,金华,120.0499151848597,29.384123596304136
玉溪,玉溪,102.51843304428996,24.34502604755829
云霄,漳州,117.36758813804259,23.897962808081385
义县,锦州,121.23568898494953,41.52919591071428
阳新,黄石,115.18650757070856,29.865874332499022
宜兴,无锡,119.79913004221167,31.351070885927477
尤溪,三明,118.14931353494948,26.172990098059685
益阳,益阳,112.34874097239604,28.544123720762343
岳阳,岳阳,113.12254448250472,29.150269316045275
岳阳东,岳阳,113.12254448250472,29.150269316045275
益阳南,益阳,112.33417000787625,28.521994018482445
扬州东,扬州,119.5346229966626,32.41092009062218
崖州,三亚,109.16408399982062,18.38230999682754
永州,永州,111.57763201949419,26.460144019525615
兖州,济宁,116.84758730096777,35.56208182985797
扬州,扬州,119.35752961113673,32.395765625107785
榆中,兰州,104.17821561720812,35.857250597438
诏安,漳州,117.10431015417923,23.778292493076048
淄博北,淄博,118.03332901480644,36.90174689882989
淄博,淄博,118.06366434272563,36.795413731892225
中川机场,兰州,103.62274130849974,36.510014786054136
正定机场,石家庄,114.71563919345931,38.258177826994135
正定,石家庄,114.56276241770198,38.16759325760848
纸坊东,武汉,114.35090936995915,30.360124339171644
柘皋,合肥,117.73021504420228,31.752306923829238
自贡,自贡,104.88695278164637,29.360723839745578
珠海,珠海,113.55590080444922,22.22111059590616
庄河北,大连,122.9433751255228,39.73414220700641
珠海北,珠海,113.55840986156832,22.407081388328567
珠海长隆,珠海,113.54765615648138,22.110358626331667
张家川,天水,106.34929795510602,34.97207093425332
张家港,苏州,120.68040502717871,31.822590965211532
湛江,湛江,110.39444984793596,21.19276762544089
织金,毕节,105.76795306449742,26.659733315302557
治江,汉中,107.21258401291355,33.122839117233475
芷江,怀化,109.66663320195383,27.460355317019765
诸暨,绍兴,120.19188500455964,29.73331140329151
镇江,镇江,119.43332529940336,32.213076319908396
周家,哈尔滨,126.679401770796,45.46779980917479
张家界,张家界,110.49301758778287,29.110664856160046
张家口,张家口,114.88917151628252,40.75765709797904
镇江南,镇江,119.43081939328765,32.15849579187806
湛江西,湛江,110.29498703647917,21.24918597307538
张家界西,张家界,110.47001530741034,29.173410532671276
周口东,周口,114.75258506179588,33.65149503847416
周口,周口,114.67140195895934,33.58431530024307
镇赉,白城,123.20149934138364,45.86403387277855
庄里,富平,109.07873798273826,34.82888098773112
扎兰屯,呼伦贝尔,122.75137282321903,48.02301392494755
扎赉诺尔西,呼伦贝尔,117.70094877991843,49.47822509444109
驻马店,驻马店,114.04996193258397,32.985278194537614
驻马店西,驻马店,113.9852431527954,33.00668165851875
泽普,喀什,77.31478450591126,38.18454821702489
漳平西,龙岩,117.36815901119398,25.32813496598896
章丘北,济南,117.49218797898469,36.80867189057566
肇庆东,肇庆,112.6694712529282,23.220008120419976
肇庆,肇庆,112.45831996151955,23.08836103495588
章丘,济南,117.50630655685445,36.7289511148787
柞水,商洛,109.15307491962216,33.64471524744702
珠斯花,通辽,119.68450984262086,45.56987031334667
中山,中山,113.43940100018749,22.55010201129482
樟树,宜春,115.58333968893494,28.083283352995874
朱砂古镇,铜仁,109.1449790179018,27.522538987945456
中堂,东莞,113.62776228081555,23.082506097341593
昭通,昭通,103.79774109182817,27.39161119639346
中卫,中卫,105.1967073078076,37.52779653108922
中卫南,中卫,105.18550103640118,37.47849896706389
镇雄,昭通,105.13279896743326,27.597783956000473
紫阳,安康,108.5559571437433,32.530935210007215
枣阳,襄阳,112.76719756434298,32.07566109866154
资阳北,资阳,104.68894712507554,30.131722281775172
张掖,张掖,100.52642558516511,38.980080673838344
遵义,遵义,106.95487497172302,27.67042199396955
镇远,凯里,108.41745468053253,27.040526978632748
张掖西,张掖,100.4344608399367,38.92900534394758
资中北,内江,104.87882886593901,29.802979041778034
涿州东,保定,116.05998474000361,39.466825902975
枣庄,枣庄,117.31241997863341,34.78618523280356
漳州,漳州,117.72243848725734,24.463900890958744
株洲,株洲,113.16314115425098,27.84180037158483
庄寨,菏泽,115.19874493231727,35.0388919157264
株洲南,株洲,113.17479433264478,27.775185323881395
枣庄西,枣庄,117.2606691371869,34.79891088303287
株洲西,株洲,113.07513658889239,27.79694632732348
阿巴嘎旗,锡林郭勒,114.95736709771691,44.028101587022626
安多,那曲,91.67329923841557,32.256810245934936
安广,白城,123.7971880030304,45.575229210000906
敖汉,赤峰,120.0077969799717,42.64612344787089
安化,益阳,111.10703796976522,28.040843010360497
安江东,怀化,110.16958394664988,27.3461514099931
安匠,承德,117.73551792128879,40.7700795277061
敖力布告,通辽,123.03218016488685,44.25155946011082
阿木尔,加格达奇,124.14621481740444,50.414872526010036
安仁,郴州,113.26381200695718,26.77483298687474
阿图什,阿图什,76.22878228165932,39.72624298835849
安图西,延边,128.9007249067379,43.11973194511223
阿瓦提,阿克苏,80.37836570697063,40.68354854434733
博鳌,琼海,110.49321557431722,19.142085439162326
栟茶,南通,120.88734398445973,32.50478195463058
宝坻,天津,117.34227911480178,39.72185429348293
宝坻南,天津,117.31660069247685,39.723194482933174
宝丰,平顶山,113.05347468460417,33.86140956368574
白沟,保定,116.09925138062522,39.0932468312929
白河东,安康,110.12109917785722,32.81014156314287
滨海港,盐城,120.22675382768742,34.139876960103805
白河县,安康,110.10451250559879,32.84002348094802
北滘,佛山,113.19107243695515,22.912996133418638
笔架山,双鸭山,131.01056148547733,46.79321893674859
北井子,丹东,123.90895302836255,39.90345406406614
保康,通辽,123.33348953561557,44.13397364237663
保康县,襄阳,111.23386300121803,31.748591639682388
白狼,兴安,130.24554573859015,47.25871626948282
博罗北,惠州,114.56759699319264,23.483424591218235
北流,玉林,110.32788585882133,22.735789596111097
宝林,牡丹江,129.98443240142558,45.03500580917919
宝龙山,通辽,122.74714819195663,44.03746287545386
八里甸子,本溪,124.89997372799193,41.24293708281425
白马北,内江,105.00131785269491,29.547658637810052
八面城,铁岭,124.0675179644396,43.2159619956272
白泉,辽源,125.00768900271008,42.93199495092017
璧山,璧山,106.23091142756358,29.51016955438123
白沙铺,黄石,115.08158602616109,29.96425291485178
板塘,湘潭,112.89211735146931,27.457146261945272
泊头,沧州,116.59312825170056,38.06652380567788
巴图营,朝阳,120.73346299297279,41.47700895745757
白文东,吕梁,111.10352803443642,38.15928608137121
本溪新城,本溪,123.6846150611504,41.48856764543255
博兴,滨州,118.14949249352371,37.14168938738336
八仙筒,通辽,121.06895728398962,43.20875093847619
白音察干,乌兰察布,113.19173072971164,41.461644959550846
宝应,扬州,119.39408588437364,33.22179718916199
白音华南,兴安,130.24554573859015,47.25871626948282
白音胡硕,兴安,110.67776211076786,25.605392408407507
白银市,白银,104.17642215025745,36.56469661739321
霸州北,廊坊,116.33364246446062,39.191957208058255
霸州,廊坊,116.38198226022466,39.12853990099952
霸州西,廊坊,116.35712192472766,39.099771114258246
长安,东莞,113.7704497276102,22.785143343966826
长安西,东莞,113.73579790647814,22.791649913894876
赤壁北,咸宁,113.90663781273514,29.7423415537547
承德县北,承德,118.1804557369944,40.77436719493557
城固北,汉中,107.31247729240359,33.18997925610088
长葛,许昌,113.78523929371252,34.21987465839753
查干湖,松原,124.48534751523044,45.04256295580927
崔黄口,天津,117.20714369320541,39.526663868586084
蔡家沟,松原,126.1443588819254,45.125908183537724
成吉思汗,呼伦贝尔,122.84612303417336,47.75492485278059
陈江南,惠州,114.3335716919643,23.01200078848547
蔡家坡,宝鸡,107.6043307339485,34.326585916937766
昌乐,潍坊,118.8454727433199,36.71659546566699
茶陵南,株洲,113.53030053471213,26.743422438773784
长宁,宜宾,104.93546702832441,28.601496170763852
常平,东莞,114.01233809832894,22.990089143765815
常平南,东莞,114.00940027999009,22.978500962910335
长箐,六盘水,105.28093493581274,26.32002360157678
长寿湖,长寿,107.21128621843982,29.971390454844872
磁山,邯郸,114.12395445913535,36.60398468787181
常山,衢州,118.56722304450228,28.928568032120612
常熟,苏州,120.7888850293775,31.702442915839878
楚山,牡丹江,130.03502478808676,45.124464557407514
长山屯,松原,124.47570447507243,45.31939878072521
岑溪,梧州,110.95447685861447,22.90882028507844
长兴,湖州,119.9806847722223,31.04755693562159
磁窑,泰安,117.11370743372112,35.90884691091925
城阳,青岛,120.37202932188042,36.305571478519816
昌邑,潍坊,119.4716170159899,36.80106894051723
朝阳镇,通化,126.0341075207907,42.69022611033055
陈庄,蒲城,109.60497029116365,34.860474204643246
曹子里,天津,117.14518109438256,39.41716096178626
长治南,长治,113.11492399165861,36.099856915760824
城子坦,大连,122.48465604566643,39.501056175593
都安,河池,107.8525266946543,24.70157894628611
大安,白城,124.28944765469922,45.488807574896235
德安,九江,115.77334513813737,29.315110207384055
德保,百色,106.63565537156647,23.35156281828338
到保,白城,123.17732351468511,45.604166037616515
电白,茂名,111.15200399951055,21.710609951539702
大板,赤峰,118.64654703051008,43.530550513860426
东边井,绥化,127.11903751789283,47.416626226849274
大厂,廊坊,116.99234716779806,39.90022208881659
都昌,九江,116.42474850390506,29.48597635727082
东城南,东莞,113.78197995715668,22.99421704470614
德昌西,西昌,102.27148382916775,27.900580896263623
东戴河,葫芦岛,119.8532902288665,40.04886628118171
东二道河,佳木斯,134.12904226847633,47.69248873770911
杜尔伯特,大庆,124.4548401618059,46.876709280133845
大方,毕节,105.60139752130304,27.212811342276733
东丰,辽源,125.55219122825851,42.66050754974186
东莞港,东莞,113.61779664482428,22.913546853689198
大港南,镇江,119.68429902005732,32.13874003128884
东光,沧州,116.53698900817669,37.89837479352705
东海,鸡西,131.31781906990926,45.29660018204022
东花园北,张家口,115.80111105813816,40.34908164320993
鼎湖东,肇庆,112.66653127865611,23.219957721680558
鼎湖山,肇庆,112.59352774039431,23.179703467165737
东海县,连云港,118.77537077793224,34.5215120353471
丹江口,十堰,111.39401721940334,32.463285046554496
董家口,青岛,119.72091898315489,35.68171090825959
大口屯,天津,117.27114328960269,39.611004075712124
东来,通辽,121.64866230586306,43.39551397103963
大林,通辽,122.8124546432098,43.721901873048736
带岭,伊春,129.02689011085826,47.02920505823465
达拉特西,鄂尔多斯,109.89826596220483,40.385820061357364
大朗镇,东莞,113.95052461824118,22.94616885096091
德清,湖州,120.06705693683723,30.55036055821017
德清西,湖州,119.96477838672656,30.54102494855942
东胜东,鄂尔多斯,110.11224035840948,39.759914914670745
登沙河,大连,122.07526049593804,39.228472955711375
砀山,宿州,116.33682812529067,34.422586141386155
大石头南,延边,128.46396185237032,43.30640540497262
大石寨,兴安,130.24554573859015,47.25871626948282
灯塔,辽阳,123.32383616494424,41.434538073000745
定陶,菏泽,115.60228712334262,35.070542286316496
东台,盐城,120.35019609629096,32.88068556816966
当涂东,马鞍山,118.53263425624803,31.567720609703784
丹徒,镇江,119.5241336628837,32.12399103270666
大旺,肇庆,112.81823109448416,23.26016257438589
低窝铺,玉门,97.24877144378668,40.14892340471508
德兴东,上饶,117.9638539607788,29.123162012376778
德兴,上饶,117.86670221990678,28.96422299316745
代县,忻州,112.99107380252299,39.082487831078275
大雁,呼伦贝尔,120.55794720184936,49.23740476835576
丹阳北,镇江,119.67768165251807,32.02094096731556
定远,滁州,117.84864746297667,32.58133878245291
岱岳,朔州,112.8326993970446,39.52364315162793
大余,赣州,114.43081506747221,25.44497426626341
道州,永州,127.46477303070886,45.78057590277412
东镇,运城,111.31749901708012,35.431687945263775
端州,肇庆,112.52006993140778,23.11632486917366
大足南,大足,105.73642083432715,29.68960205688228
峨边南,乐山,103.26857725337631,29.236089109562577
二道湾,齐齐哈尔,124.55322231176766,47.96753315060846
二龙山屯,黑河,126.64774862869346,48.49569784492477
额敏,塔城,83.59680542560727,46.56700508396935
恩平,江门,112.40227081805682,22.190729971832223
峨山,峨山,102.39571804386784,24.19425832311808
福安,宁德,119.7237091932627,26.83995312870521
丰城东,宜春,115.8175340437863,28.171445016839737
凤城东,丹东,124.14192038779518,40.47005246384282
富川,贺州,111.3687574833998,24.798502103733515
丰城,宜春,115.79751341906149,28.18894621378105
方城,南阳,113.00895538217407,33.24126349243651
繁昌西,芜湖,118.16475236854392,31.07709605679554
扶沟南,周口,114.39352597148856,34.00296604244743
富海,齐齐哈尔,124.87156893873704,47.87272303695438
凤凰古城,吉首,109.70444880967267,28.267493127592708
福海西,深圳,113.79637659663501,22.6958112154686
奉节,奉节,109.3804061306241,31.03101256929965
枫林,黄石,115.41596695721839,29.757010984173885
福利屯,双鸭山,131.1406840030066,46.72873193576825
阜南,阜阳,115.56042357132222,32.64461994251373
抚宁,秦皇岛,119.25588292912178,39.89998746157902
阜宁南,盐城,119.65020904459807,33.57821407109935
富平,富平,109.18062100893289,34.7500299422901
佛坪,汉中,107.99072696770489,33.50651810177853
芙蓉镇,吉首,109.70444880967267,28.267493127592708
丰顺东,梅州,116.19589295835885,23.809673026693158
复盛,江津,106.26559760837834,29.295884374464997
繁峙,忻州,113.2798739036395,39.17186362960183
扶绥南,崇左,107.91046515426495,22.64109713634538
凤台南,淮南,116.62907313820737,32.64255301857667
费县北,临沂,117.9420360224384,35.32489789613304
富县东,延安,109.4048387828678,36.02699930262243
费县,临沂,117.98576966686947,35.284365293377824
汾阳,吕梁,111.92352349209041,37.378726245779106
富源北,曲靖,104.27716799997276,25.719102995466475
扶余,松原,126.03160340435109,44.99315184270367
抚州东,抚州,116.62299312141174,28.26636402624148
固安东,廊坊,116.41102887905924,39.3788280130396
固安,廊坊,116.3302164170761,39.4309547439983
高碑店东,保定,115.95231141615278,39.29503553971096
高碑店,保定,115.86538203263,39.33464814049522
沟帮子,锦州,121.78212535209148,41.3674749788329
谷城北,襄阳,111.63735165323499,32.31169798268616
古城东,亳州,115.81811822720583,33.53295505551515
恭城,桂林,110.87652073868718,24.83662075605324
谷城,襄阳,111.60954236040983,32.27072588889228
贵定北,都匀,107.23891046032078,26.59907700572091
广德,宣城,119.4158123912685,30.918187387186023
贵定,都匀,107.23460928370987,26.58713041975931
广德南,宣城,119.42417696302468,30.86099381907559
葛店南,鄂州,114.66679571779582,30.49611825787089
贵定县,都匀,107.1976679967436,26.35756799821205
贡嘎,贡嘎,91.04654806337925,29.293187703150394
葛根庙,兴安,130.24554573859015,47.25871626948282
广汉北,德阳,104.28182797134001,31.015244834640647
甘河,呼伦贝尔,123.06606361625443,50.635303430441716
个旧,个旧,103.21972398619893,23.52207604230108
古浪,武威,102.92411303372124,37.48578428393444
橄榄坝,景洪,100.953251215759,21.875046841240245
关岭,安顺,105.53528403240152,25.9700359589115
关林,洛阳,112.51973478787913,34.63977693916293
甘洛南,西昌,102.10781984157845,27.942949025404086
桂林西,桂林,110.27347306867506,25.36110472000893
高密北,潍坊,119.7924344322625,36.52069238399936
光明城,深圳,113.9608463282085,22.738209331546898
高密,潍坊,119.77600451431555,36.399771320982026
灌南,连云港,119.28655197753795,34.10596401770005
广宁,肇庆,112.43235731533983,23.59140481095188
高平东,晋城,112.97126796263899,35.739583889458146
高坪,恩施,110.09652234757918,30.66989812566163
广平,邯郸,114.94667618418154,36.5030703738299
高平,晋城,112.92535242395473,35.807116818584966
甘泉北,延安,109.3530897380323,36.283566946390955
甘旗卡,通辽,122.36326676447538,42.9643998629073
赶水东,綦江,106.71353199145618,28.766874990996847
光山,信阳,114.97139629418844,31.983365712190324
高台,张掖,99.79530775602396,39.27493057596671
古田北,宁德,118.67214270260818,26.468527471444798
高台南,张掖,99.7759573570335,39.30072168201778
赣县北,赣州,115.16191987094196,26.012071377711322
贵溪,鹰潭,117.22127869425593,28.295801971160163
涡阳,亳州,116.24647188590842,33.49381471889711
高邮北,扬州,119.46252697270388,33.008244943852404
观音机场,徐州,117.57011454468646,34.04476537997718
高邮,扬州,119.51193934524684,32.78007988572627
灌云,连云港,119.31435345510515,34.294834107961144
古镇,中山,106.33887966507767,28.85263931687861
盖州,营口,122.33959866005124,40.42471618315698
瓜州,酒泉,95.77940431772174,40.57324613527727
冠豸山南,龙岩,115.92269139353006,28.670467686217926
古丈西,吉首,109.94234894424312,28.627272276832187
海安,南通,120.5109660130728,32.553681122616055
怀安,张家口,114.40675100486757,40.691103962417564
惠安,泉州,118.7213649038584,25.063237197946343
惠安堡,吴忠,106.68313011143773,37.484845488749684
淮北北,淮北,116.85650576790138,34.05312191620959
鹤壁东,鹤壁,114.30573798755937,35.71224186292319
海北,绥化,126.88338314701726,47.67607072340415
鹤壁,鹤壁,114.28075233844373,35.765734516498135
会昌北,赣州,115.7918934401318,25.83276769298738
寒葱沟,佳木斯,134.16380381713503,47.97759200155023
河唇,湛江,110.30848874795079,21.70222938571881
汉川,孝感,113.81949761162434,30.54743301407989
红岛,青岛,120.26956248693487,36.21586136444389
横道河子东,牡丹江,103.70944899022264,36.0142744100014
化德,乌兰察布,114.04582254079399,41.90313046142833
河东里,酒泉,96.78063129506386,40.51016202463426
海东,海东,118.75956509248417,34.54791862736427
洪洞,临汾,111.67772195200615,36.267558891299565
海东西,海东,118.75956509248417,34.54791862736427
横峰,上饶,117.60863800122164,28.42003704519948
横沟桥东,咸宁,116.49067192692948,39.90817264355125
黄冈西,黄冈,114.89507068856653,30.509727125720822
洪河,佳木斯,133.50926401745997,47.610839762896035
惠环,惠州,114.37228023756587,23.03663344822431
花湖,黄石,115.05924105102586,30.249980686177228
厚街,东莞,113.6735679567208,22.94055994154602
涵江,莆田,119.18249386775409,25.49805721601011
获嘉,新乡,113.65602325627414,35.262902845223685
黄口,宿州,116.7043750348701,34.365201006540055
湖口,九江,116.29078653884063,29.735323636448463
怀来,张家口,115.57152474098397,40.384284518955695
海林北,牡丹江,129.379412960295,44.61679302408801
浩良河,伊春,129.6447170626458,46.73393787253963
黄流,乐东,108.83817903039991,18.53432976628313
鹤立,佳木斯,130.2985158501057,47.05891067173249
哈拉苏,呼伦贝尔,122.43533142784936,48.12255667767357
虎门北,东莞,113.67717797707256,22.86546598840561
虎门东,东莞,113.69906698742697,22.83438904423472
黄梅,黄冈,115.94853305334725,30.099766142448555
虎门,东莞,113.67955255785685,22.866655800003755
洪梅,东莞,113.62422630301695,22.986268931196687
桦南东,桦南,130.6260087542861,46.22230028156369
化念,峨山,102.23974076669435,24.0493369005927
海宁,嘉兴,120.69193837162132,30.539460656960358
怀宁,安庆,116.82611492470167,30.76756907253285
惠农,石嘴山,106.73435652212753,39.26783895309068
和平北,河源,114.96618988004855,24.479396015362575
合浦,北海,109.19426383104606,21.628695743823567
横琴北,珠海,113.53988958670578,22.165957428606344
霍邱,六安,116.15013275216863,32.06120636707342
横琴,珠海,113.55152003797016,22.142679985323532
华容东,鄂州,114.79286867408534,30.537269890554146
怀仁,朔州,113.10133200047879,39.83408018811701
红寺堡北,吴忠,106.06882900878071,37.60661281989321
黑山北,锦州,122.30747004484247,42.05187289735333
黄石北,黄石,115.01468563671428,30.21715956845446
贺胜桥东,咸宁,114.37794818614839,30.02590616475892
汉寿,常德,111.9540618229847,28.77532570575004
衡山,衡阳,112.87556328770634,27.23599602965559
惠山,无锡,120.20871279880832,31.676376917980118
红山,伊春,129.03204701329943,47.989022881480835
汉寿南,常德,111.9540618229847,28.77532570575004
含山南,马鞍山,118.09982302594382,31.48284187749666
衡山西,衡阳,112.79627435189433,27.253672047495247
荷塘,湘潭,112.95750536884121,27.784982534656113
黑台,鸡西,131.6307209773521,45.41615868128856
黄桶北,安顺,105.71238181956589,26.236422620007108
徽县,陇南,106.2072454912523,33.706284130787004
红星,伊春,129.39194700739688,48.24206290251626
红兴隆,双鸭山,131.60191779931054,46.731394605116954
换新天,佳木斯,133.06939542957497,47.36847566787768
滑浚,安阳,114.52555316618987,35.58104540055751
海晏,海北州,101.00293102428851,36.873265927260725
红彦,呼伦贝尔,124.98893102649703,49.51936475755364
合阳北,渭南,110.09771152441328,35.29469863558953
河源北,河源,115.01365409741634,23.88992660399213
海阳北,烟台,120.96681437801095,37.075363732528615
汉阴,安康,108.512841353842,32.88321468361291
花园口,大连,122.62139763751463,39.55790627737689
淮阳南,周口,114.90855901529052,33.507923075801465
花园,孝感,113.98387503350371,31.251433873546627
霍州东,临汾,111.84346911012715,36.57127176575152
黄州,黄冈,115.01194508626443,30.591944876967013
壶镇,丽水,120.24117484821474,28.83977631786628
化州,茂名,110.65833894903754,21.65922507418269
霍州,临汾,111.72585468835014,36.59272859142351
靖边,榆林,108.76234382279681,37.625262024080996
金宝屯,通辽,123.58459197651419,43.38966202659305
交城,吕梁,112.20196244762427,37.52736753897879
泾川,平凉,107.37265962936675,35.35411871797989
旌德,宣城,118.53539286263863,30.298232451424088
井店,邯郸,113.72807750902663,36.610913439591265
江都,扬州,119.58515977821239,32.46428739498178
尖峰,乐东,108.75914799809973,18.626817049017802
江华,永州,111.56258459373207,25.184558959825143
建湖,盐城,119.80057002594417,33.512397105021975
纪家沟,承德,118.13994467374982,41.935516877181286
锦界,榆林,110.16165704281887,38.72924710460131
金口河南,乐山,101.62247338027404,34.740396071091155
将乐,三明,117.48576795326854,26.701814878450847
江门东,江门,113.10995329349772,22.566274311858454
角美,漳州,117.88684115146722,24.531611388770425
莒南,临沂,118.85399622532077,35.189018947737694
莒南北,临沂,118.80542403792131,35.27994188824632
济宁北,济宁,116.61921863693236,35.5301675479857
济宁东,济宁,116.76275213708041,35.531282208762725
建宁南,建宁,116.86069715588943,26.81866343993554
建瓯东,南平,118.89191242690728,27.169365930677465
建瓯,南平,118.30078338456707,27.029466519601076
建瓯西,南平,118.28655952529621,27.054334132639273
金普,大连,121.8199653937327,39.33663350675767
建桥,梅州,116.11893602364997,23.934764001901566
江桥,齐齐哈尔,121.35217477568379,31.26535854435243
句容西,镇江,118.98668151863868,31.838676741160498
九三,黑河,125.26498956226173,48.88911984019588
建始,恩施,109.73450118468328,30.572623287569662
建水,蒙自,102.87890759447028,23.663244135113484
稷山,运城,111.00239697978421,35.618650722947216
京山,荆门,113.14286506590207,31.042881078135654
嘉善,嘉兴,120.92488480053558,30.85589106641496
嘉善南,嘉兴,120.94185765433275,30.794043600637718
吉水西,吉安,115.09723100474825,27.284511941708242
景泰,白银,104.06237139626909,37.2003941644324
金塔,酒泉,98.88070922985878,39.918512771019394
吉文,呼伦贝尔,123.21620505173482,50.59486128428939
嘉祥北,济宁,116.3750455450766,35.477203424425916
泾县,宣城,118.3960039644525,30.664078899190013
莒县,日照,118.84691102027192,35.65757479437162
嘉祥,济宁,116.36519005566554,35.398179495219644
郏县,平顶山,113.27671869536626,33.9516217332889
揭阳,揭阳,116.34097495749707,23.614982044116438
建阳,南平,118.12030653139747,27.360488332793413
姜堰,泰州,120.12523757963251,32.5409428164115
江油北,绵阳,105.08303500993058,31.98844800199686
巨野北,菏泽,116.08110614830697,35.45291391725109
揭阳机场,揭阳,116.52319802674694,23.551491012929123
江永,永州,111.47216268824693,25.355707965460777
靖远,白银,104.67855337100289,36.55748421823704
缙云,丽水,120.10183697382763,28.666743006053697
济源,济源,112.5801813164928,35.11664611345633
金月湾,东方,108.72197000763165,18.78506105666013
缙云西,丽水,120.06267013496112,28.683351464718502
胶州北,青岛,120.03953537126692,36.27034908804922
晋中,晋中,112.648973732108,37.692428509467405
靖州,怀化,109.69483343732759,26.57302926177952
景州,衡水,116.2794754506839,37.69818968446236
胶州,青岛,120.00598707403019,36.304040580808
克东,齐齐哈尔,110.03127635228681,40.576177036923816
昆都仑召,包头,109.80247910669259,40.71026962150529
开江,达州,107.80783133705954,30.920040028819265
喀喇其,呼伦贝尔,122.06255638019952,50.70796324943546
开平南,江门,112.68254303538289,22.326824018580425
葵潭,揭阳,116.00332805709823,23.069995888246996
克一河,呼伦贝尔,122.50130702687734,50.658168246017354
开远南,蒙自,103.29058960107719,23.686250251919414
昆玉,和田,79.28381996850493,37.22530195987717
冷坝,六盘水,105.1799594677082,26.431655094457785
来宾,来宾,109.24785098859839,23.736138779337313
灵璧,宿州,117.54681025399385,33.60490596999992
寮步,东莞,113.88113815321513,23.003735490525386
洛川东,延安,109.36112103844424,35.824796908259515
罗城,河池,109.13279296467968,24.84806203092885
乐昌,韶关,113.36417276460145,25.135316622332066
黎城,长治,113.3989011803226,36.52105550989934
临城,邢台,114.6180888744004,37.47485453643107
蓝村,青岛,120.19027840194641,36.40068288563843
乐东,乐东,108.94559139646462,18.4520291807008
林东,赤峰,119.41906389789241,43.941109605357624
乐都,海东,102.43941127546371,36.483291656002166
来凤,恩施,109.36322198215666,29.524520016359528
龙丰,惠州,114.4017389842265,23.06833898213463
禄丰南,楚雄,102.0704351510126,25.125497574477265
临高南,临高,109.76635095251426,19.873428375992038
临海,台州,121.25321329135734,28.88585764008072
滦河,唐山,118.7122024734539,39.75548580732605
临海南,台州,121.13995439371342,28.813313396940085
凌海南,锦州,121.38246303239428,41.15891414084232
六合镇,齐齐哈尔,124.70335916588994,48.35697395359285
罗江东,德阳,104.54171350453188,31.30974874509776
廉江,湛江,110.30331810143706,21.62113358279419
两家,白城,123.95142598112795,45.53404028720826
李家,黑河,126.76341624276998,47.94618699778274
龙江,齐齐哈尔,123.1857849237753,47.3355577047947
莲江口,佳木斯,130.3289266356879,46.879728816739124
利津南,东营,118.18127400348344,37.413345950587335
厉家寨,临沂,119.13832680737238,35.28899403157994
林口南,林口,130.30436274100907,45.22002707260421
路口铺,岳阳,113.37499231548225,29.516048671836483
老莱,齐齐哈尔,125.01347228387702,48.65669977586947
龙里北,都匀,106.9738290383162,26.47326199778958
沥林北,惠州,114.23615271267704,22.985302445328912
兰陵北,临沂,118.01893645375611,34.90143781334689
醴陵东,株洲,113.58449324000853,27.720533528147726
临澧,常德,111.61531000680895,29.43972048097625
零陵,永州,111.5876586361016,26.22829616855778
陆良,曲靖,103.70418760350573,24.85303729794058
卢龙,秦皇岛,118.9906936205379,39.958424527248205
芦庙,亳州,115.79250699813304,34.04634804915543
龙南,赣州,114.88443761086788,24.925506125774074
龙南东,赣州,114.87602021875053,24.91078020369569
六盘水东,六盘水,105.04041058747433,26.527639744385926
乐平市,景德镇,117.12106633668188,28.97251254724942
临清,聊城,115.7440990209808,36.847724132019884
礼泉南,咸阳,108.41458900902707,34.46811600107352
龙泉市,丽水,119.13941733381779,28.03848407054227
临泉,阜阳,115.3834979892656,33.02714612140727
乐山北,乐山,103.58210617795957,29.7562572228747
冷水江东,娄底,111.4737154093204,27.664676000957687
灵石,晋中,111.777769919705,36.86647557470389
罗山,信阳,114.55676865384774,32.17176287209274
涟水,淮安,119.20394802487627,33.78184438874071
龙市,吉安,113.97474185681556,26.725518858111574
梁山,济宁,116.09306277430588,35.77901923759768
鲁山,平顶山,112.90993974716729,33.75462123448421
娄山关南,遵义,106.83723243302242,28.114953066320506
龙山镇,漳州,117.36919403880225,24.69824087644994
轮台,库尔勒,84.12779103777378,41.86632186103547
龙塘镇,清远,113.09060244536091,23.611951060596798
灵武,灵武,106.33213250460753,38.11990687796536
岚县,吕梁,111.65050500183429,38.257200099959945
朗县,朗县,93.04287009416235,29.050692622750123
临湘,岳阳,113.12254448250472,29.150269316045275
滦县,唐山,118.71190208009135,39.764392265279504
林西,赤峰,118.08789173216029,43.599634094963726
朗乡,伊春,128.88504605388195,46.9658562528694
郎溪南,宣城,119.16266010702667,30.944496767004694
莱西南,青岛,120.5241239430302,36.81486567384149
莱阳,烟台,120.71662479517157,36.93505454154955
临沂东,临沂,118.44995996626491,35.12355090475615
临邑,德州,116.85104802294495,37.31888200547154
临颍,漯河,114.00770043122266,33.83480143160227
龙游南,衢州,119.16189500377268,28.852158998264407
龙游,衢州,119.17189197629827,29.009622408232108
鹿寨北,柳州,109.66073034661916,24.646345177961894
临淄北,淄博,118.34600904078634,36.91204294660834
临泽,张掖,100.16573795679876,39.162732129950804
雷州,湛江,110.05229875388102,20.92523617690165
六枝南,六盘水,105.44478891501733,26.23337760744823
临泽南,张掖,100.13165489829193,39.14002295846607
马鞍山,马鞍山,118.50902391286819,31.712962900667122
明城,吉林,126.02463920105444,43.19855786400288
毛陈,孝感,113.9974865179131,30.87004233290124
渑池,三门峡,111.79318017106756,34.7586376902592
明港东,信阳,114.07139729866306,32.492526964031036
墨江,墨江,101.74743628974628,23.440366675223515
马兰,库尔勒,86.18149430993829,41.7323732214122
汨罗东,岳阳,113.12254448250472,29.150269316045275
民乐,张掖,100.84533598867057,38.479309106234055
米林,米林,94.2192018777343,29.234902146516006
茂林,四平,123.40854152368541,43.98436753996048
汨罗,岳阳,113.08227173972524,28.819789551309945
牟平,烟台,121.65770806268743,37.429802319490626
民权北,商丘,115.18702770473675,34.66668211886563
眉山,眉山,103.81908834551261,30.070862335005216
明水河,兴安,125.92663918055668,47.19068733748584
蒙山,临沂,117.67968796435201,35.45447392385971
马山县,南宁,108.18356215633243,23.713877725360007
马踏,茂名,111.3726180411582,21.687692979986977
眉县东,宝鸡,107.84868474453397,34.27673154575914
美溪,伊春,129.14705221689286,47.64293618638364
麻阳,怀化,109.81001937995087,27.86157784652781
米易东,攀枝花,102.13399547599451,26.912530753857073
麻阳西,怀化,109.7877104117707,27.842210825761395
米脂,榆林,110.17927389183615,37.75367797198899
明珠,珠海,113.52208685506316,22.275125791644097
牛车河,常德,111.00627575938867,29.03747210211528
宁城,赤峰,119.32660463548078,41.62118163348362
宁都,赣州,115.98183421133756,26.4053054673538
宁洱,宁洱,101.07105877318173,23.054585440906898
南芬北,本溪,123.75159002505784,41.141154915605924
宁国,宣城,118.99896692445422,30.64114427700366
南华,楚雄,101.26722902360544,25.192572000588804
宁化,三明,116.73247706981233,26.25099898210457
内黄,安阳,114.86984689866021,35.67908830651175
内江东,内江,105.06264786475738,29.56676514811861
南靖,漳州,117.45581808825357,24.58512426563627
南江口,云浮,111.79486969005316,23.125332979337276
南朗,中山,113.5397010323793,22.492434025006364
南陵,芜湖,118.30494803490855,30.842320832458388
尼勒克,伊宁,82.05593004684442,43.97247992770729
南堡北,唐山,118.26267528092326,39.112915422502226
南头,中山,113.31518996176955,22.71922201973348
泥溪,宜宾,104.28127199852428,29.012532006063697
宁县,庆阳,107.95090203020884,35.490968101428194
宁乡西,长沙,103.76964075939367,36.07358743073559
娘子关,阳泉,113.88678204177994,37.96850903261634
南漳,襄阳,111.87337783275966,31.80663891437529
南召,南阳,112.747375914282,33.44511221082839
南杂木,抚顺,124.41431554385791,41.971267657477874
蓬安,南充,106.43022746629711,31.006592605187794
磐安南,金华,120.35079327295013,28.914626432058
普安县,兴义,104.9024609483044,25.09811331029694
平安驿,海东,121.46287215520343,31.675830839948564
屏边,蒙自,103.64324898315382,23.019301999059184
平坝南,安顺,106.26416400261544,26.389700951041533
普定,安顺,105.7185810258882,26.289296025165203
平果,百色,107.57230999260875,23.321843042266128
平湖,深圳,114.13143175974989,22.69828391132823
皮口,大连,122.3466490108463,39.436399094709984
屏南,宁德,119.13436688058125,26.902353059951892
平南南,贵港,110.4389824452729,23.423412326875663
朋普,蒙自,103.37154588174573,23.402079885197992
彭山北,眉山,103.86799739747832,30.21330867183811
彭山,眉山,103.86561598957135,30.19781007683945
彭水,彭水,108.24182544321539,29.367300893257195
屏山,宜宾,104.36734350025658,28.855010743489046
平台,白城,122.66579700643815,45.72520896323662
蓬溪,遂宁,105.71208700770585,30.68584884184109
平遥,晋中,112.17466680588973,37.21319293505635
平洋,齐齐哈尔,123.54776135105907,46.604496923379564
鄱阳北,九江,116.70760514618246,28.997997563214728
平邑,临沂,117.65027717246367,35.52233011415253
平原,德州,116.44646128227261,37.176173566744474
邳州东,徐州,118.02051648331762,34.32935086536242
平庄,赤峰,119.303667302589,41.997153890651425
泡子,阜新,122.33536800042145,42.21352988188603
乾安,松原,123.88677690984657,45.10553006401011
迁安,唐山,118.69972842348123,39.93222184637905
秦安,天水,105.66547600089577,34.85183497116223
庆城,庆阳,107.79646597574728,36.08306087523803
蕲春南,蕲春,115.41431903097406,30.208247121441048
青岛机场,青岛,120.1013928683451,36.365773633348454
祁东,衡阳,112.07218163140259,26.766570187560628
青堆,大连,123.23352403236255,39.84985208276843
曲阜南,济宁,117.03015909247681,35.5170457023013
清河门北,阜新,121.42204704435255,41.80114688745436
齐河,德州,116.86921202984837,36.84949789633493
潜江,潜江,112.94570605053872,30.39581576430782
曲江,蒙自,113.61150106464875,24.688407846380294
全椒,滁州,118.2897810446781,32.06625201589307
秦家,绥化,127.00969900511745,46.80461780524517
清涧县,榆林,110.00452625148849,37.17315462481937
秦岭,宝鸡,106.91106426509798,34.239161379889595
青莲,绵阳,104.70719647100239,31.676903402353314
清水北,酒泉,99.10435271708114,39.38078346029957
青神,眉山,103.7766794208482,29.854101584130685
岐山,宝鸡,107.61938678344848,34.28045930862034
前山,珠海,113.53209789850253,22.240600534955743
确山,驻马店,114.04340466168333,32.808766831790116
清水,酒泉,99.0632766196708,39.36052780832303
清水县,天水,106.11325776201541,34.75755077977132
戚墅堰,常州,120.07414896900795,31.72889395139051
青田,丽水,120.2862704136146,28.142164866488844
犍为,乐山,103.96582150862525,29.353307702531573
祁县东,晋中,112.36379119711073,37.329472518070396
黔西,毕节,106.0532230045266,26.99128098735836
祁县,晋中,112.33890211583743,37.3529435113579
乾县,咸阳,108.28465154243362,34.510813294873664
青县,沧州,116.84526051003583,38.58359481267962
祁阳,永州,111.8387778752303,26.614076416364213
清原,抚顺,124.9419865783881,42.11103650639318
青州市北,潍坊,118.5842101077812,36.83739384484154
曲子,庆阳,107.50081315104792,36.32569726569313
青州市,潍坊,118.51046299829515,36.77720492451531
棋子湾,昌江,108.73127097304834,19.37463202476783
瑞昌,九江,115.677966742172,29.695849924705065
瑞昌西,九江,115.64070664658034,29.66608983520405
如皋,南通,120.6124507306043,32.38951823133941
如皋南,南通,120.63401329674362,32.35128334532568
容桂,佛山,113.31894784320819,22.757195809297915
榕江,凯里,108.56144299271273,25.9936950219084
任丘,沧州,116.15100734241314,38.70045007544777
融水,柳州,109.24746866977345,25.07707805071202
乳山,威海,121.51364941313824,37.002993619364865
容县,玉林,110.53867603141511,22.8652661036851
饶阳,衡水,115.72340421796413,38.24330761864754
汝州,平顶山,112.83445899787753,34.174925808936905
施秉,凯里,108.14209376891958,26.923743916886412
石城东,赣州,116.35451233169742,26.30215986544493
商城,信阳,115.42745333549655,31.809675536164683
舒城,六安,117.16654055364606,31.515190881112833
遂昌,丽水,119.33507123823455,28.647358565475866
山城镇,通化,125.43945945625043,42.38484766686232
山丹,张掖,101.08121727151648,38.81887948994397
山丹马场,张掖,101.19449153022202,38.33322235619992
绥德,榆林,110.26982623131121,37.553031497094295
顺德,佛山,113.28313689406475,22.881377056470985
商都,乌兰察布,113.56295054102974,41.58564187294027
四道湾,赤峰,119.64704835666122,42.4898437339959
三都县,都匀,107.82366701320588,26.083391992341777
顺德学院,佛山,113.32672034180015,22.828295222315617
胜芳,廊坊,116.72522820914817,39.08773871777253
四方台,绥化,127.00205613200798,46.92866168553104
桑根达来,锡林郭勒,115.9456651231761,42.68230929910224
蜀河,安康,109.68941532096804,32.91163779212242
赛汗塔拉,锡林郭勒,109.91241903500621,40.63363339110755
四会,肇庆,112.76128687941161,23.276070480901684
三河县,廊坊,117.0989330029985,39.978563147860434
四合永,承德,117.8345059783164,41.807719886246545
畲江北,梅州,116.02823402650691,24.06575503581045
双吉,吉林,126.44400369617979,43.97082087382759
沙井西,深圳,113.79987258595962,22.73930368971092
疏勒河,酒泉,96.87603583175107,40.43590315840189
双辽,四平,123.52494799404315,43.49931153192776
石磷,鸡西,130.70279599911004,45.16696203274912
萨拉齐,包头,110.53821961598811,40.57111742236813
索伦,兴安,110.67776211076786,25.605392408407507
神木西,榆林,110.49434403928645,38.866864112687956
山南,山南,113.92751883447714,22.530836097843814
肃宁,沧州,115.85663011153794,38.42088172665351
神农架,神农架,113.37905598011639,23.047285009909636
苏尼特左旗,锡林郭勒,113.62046095808404,43.88807511615559
双牌,永州,111.66704952958895,26.02531387156435
遂平,驻马店,114.04238427645454,33.15026612759263
商丘东,商丘,115.73981599013977,34.337401998951954
沈丘,周口,115.09395597762843,33.36761058241099
商丘南,商丘,115.71039199316044,34.41444261016415
桑日,桑日,92.03174648535084,29.261228751511712
狮山北,佛山,112.97789456831664,23.159451177124993
三水北,佛山,112.92489461866718,23.190762310922562
松山湖北,东莞,113.90329602640858,22.964103002971374
狮山,佛山,112.99034041149217,23.128061831073833
泗水,济宁,117.26681175026413,35.64253478623523
山市,牡丹江,129.10797737417803,44.585355652999795
三水南,佛山,112.8774791936974,23.119195329671918
泗水南,济宁,117.28856403852713,35.540584930185574
双水镇,江门,112.96276395946433,22.43094297866869
石梯,达川,107.15905749096545,31.247999134337473
沙湾南,乐山,103.55249739954664,29.412436126738598
沙湾市,塔城,85.61570978956968,44.32792963183035
孙吴,黑河,127.33010625509621,49.43235265560274
歙县北,黄山,118.41750803469789,29.927619931087044
遂溪,湛江,110.27331802114409,21.40449696593587
寿县,淮南,116.81268301156373,32.5995151044596
始兴,韶关,114.08290817069454,24.97240422924584
随县,随州,113.21726299773009,31.771214932963733
歙县,黄山,118.41803228579333,29.872702926571048
泗县,宿州,117.85689103298064,33.54322213828678
水茜,三明,116.74874690971203,26.471390865492694
泗阳,宿迁,118.7204811672033,33.76017417791837
沭阳,宿迁,118.7707374079423,34.11773357640114
松阳,丽水,119.42982504237902,28.452934015501334
三阳,黄山,118.81437601165044,30.033735299281695
射阳,盐城,120.02601102249201,33.68854208888613
双洋,龙岩,117.3801080015921,25.62530999870665
绥阳,牡丹江,130.90661497136443,44.43440213266802
邵阳北,邵阳,111.28050768063707,26.996528332196284
山阴,朔州,112.94769570741276,39.47250979001983
上虞南,绍兴,120.8020628847243,29.98375960306271
三源浦,通化,125.76693493330188,42.06270300106468
三原,咸阳,108.95410788475887,34.61139411959036
上虞,绍兴,120.86346073586596,30.007453292585858
邵阳西,邵阳,111.25133799395726,27.216990939115256
绥中北,葫芦岛,120.3304394835489,40.35438617622897
深圳机场北,深圳,113.80441998811072,22.65577797129867
嵊州北,绍兴,120.81794492613545,29.78894549292481
神州,万宁,110.31433429139393,18.730797226539305
桑植,张家界,110.10326097290351,29.361405039599823
深州,衡水,115.62005452836337,38.01728807087802
松滋,荆州,111.61364851489596,30.178963993529198
十字门,珠海,113.58255478654918,22.27656465424921
师宗,曲靖,104.02615296428317,24.831447980495238
苏州园区,苏州,120.71724705139832,31.347585457532706
苏州新区,苏州,120.53168003982739,31.377722913309604
台安,鞍山,122.43707154517517,41.451357631014154
桐柏,南阳,113.44296046050104,32.396001521146694
太仓,苏州,121.20267428118572,31.518084146046565
桃村北,烟台,121.15334949343,37.217387315058566
桐城东,安庆,117.04605299152593,31.03000085078004
郯城,临沂,118.3828493582255,34.608153261442276
桐城,安庆,116.98499804059037,31.05657184013353
桐城南,安庆,116.9708800017039,30.87939387692709
太仓南,苏州,121.15879295532882,31.414068880805395
桃村,烟台,121.1476943009225,37.19445721696333
田东北,百色,107.1482817649073,23.68961414285931
太谷东,晋中,112.63213598345952,37.45870198793921
土贵乌拉,乌兰察布,113.21189149010263,40.7918905902213
太谷西,晋中,112.51604895054115,37.45375902506551
太和北,阜阳,115.58555097304732,33.2276671058447
太和东,阜阳,115.73380596695581,33.16164410025248
唐河,南阳,112.85817147859389,32.67260204692804
唐海南,唐山,118.43983004452055,39.24583411857632
通化县,通化,125.82839699629457,41.6848808772371
谭家井,武威,103.5989342362132,37.596399068778425
唐家湾,珠海,113.55827071404487,22.3690705906318
铜陵北,铜陵,118.02800484787934,31.019028136735106
吐列毛杜,兴安,110.67776211076786,25.605392408407507
图里河,呼伦贝尔,121.68062346719759,50.489590936347994
天门,天门,113.32336653270225,30.871282501504016
太姥山,宁德,120.22997585308666,27.13268161546373
洮南,白城,122.81563041295917,45.346055013063605
太平川,松原,123.19090177150842,44.40537944536067
太平镇,双鸭山,130.73125368885246,46.781910820913204
台前,濮阳,115.87049958928979,35.969698434660664
图强,加格达奇,124.14621481740444,50.414872526010036
甜水堡,庆阳,106.82005010676023,37.14283237221965
台山,江门,112.82232143879195,22.30530256908032
桃山,伊春,128.18618314169987,46.931008992539326
唐山西,唐山,118.24481339796796,39.59216562517159
天台山,台州,120.98530023072514,29.145979194300654
通渭,定西,105.26818826198362,35.201524863220556
田心东,株洲,113.13626996187878,27.902759961464596
藤县,梧州,110.99353257708944,23.34065368675306
同心,吴忠,105.9329827580343,36.99980775210024
桐乡,嘉兴,120.57390533947665,30.543276668853668
田阳,百色,106.94255713708262,23.772562464884274
汤阴,安阳,114.35129429387017,35.91919063165248
桃源,常德,111.40649700464199,28.910677053324736
汤原,佳木斯,129.9323292445577,46.75378615788032
通远堡西,丹东,123.92333516906893,40.78474403795913
滕州,枣庄,117.16038931683592,35.086231536839875
天镇,大同,114.07424510679081,40.45800372681236
天祝,武威,103.14342156804412,36.98694647773509
天柱山,安庆,116.47511983312688,30.722452984807425
武安,邯郸,114.2185304886507,36.68249284325295
万安县,吉安,114.84920211623395,26.530672108937562
吴堡,榆林,110.67376709032189,37.486990797959464
五叉沟,兴安,130.24554573859015,47.25871626948282
吴川,湛江,110.77552802311686,21.515330972310007
温春,牡丹江,129.5078249244714,44.44161505631763
五大连池,黑河,126.62407028358638,48.63541659159332
文登东,威海,122.26408808701855,37.24704136858606
文登,威海,121.99693382496214,37.18440114007273
文地,玉林,110.2042300630389,21.95753920337311
武当山西,十堰,111.02053897820262,32.543813056911944
乌尔旗汗,呼伦贝尔,121.39186405931888,49.57148851457945
潍坊北,潍坊,119.20277402940528,36.802458891157265
五府山,上饶,118.05934787883272,28.145473064032267
王府,松原,125.01689331045696,44.88190625970116
威海北,威海,122.05358052126859,37.502921468430884
芜湖北,芜湖,118.26264063013566,31.361103639585608
芜湖南,芜湖,118.38571818670215,31.254726946239085
卫辉南,新乡,114.14672066482747,35.39669143120222
卫辉,新乡,114.06884521270922,35.43844386688869
乌兰,海西州,98.47387897117525,36.95961590722787
五龙背东,丹东,124.2935168985397,40.27095939269389
五莲,日照,119.21351686499911,35.81071893860736
望牛墩,东莞,113.63436698224493,23.04282602492178
乌奴耳,呼伦贝尔,121.25426997554085,48.87923158849697
万宁,万宁,110.38791853806671,18.813770184251112
万年,景德镇,117.08713760707286,28.691658498507245
吴桥,沧州,116.39272204157974,37.63375100833859
巫山,巫山,109.92631582124557,31.135773493701475
文水,吕梁,112.08405625621762,37.445976132421215
巍山,大理,100.30068903588379,25.235628997281133
武山,天水,104.92633693236435,34.726938535755814
五台山,忻州,113.57269275411599,39.27118375312491
无为,芜湖,117.97570325532465,31.310257881141613
瓦屋山,常州,119.28074856462128,31.564955506031882
武乡东,长治,110.03127635228681,40.576177036923816
威信,昭通,105.06486470309416,27.82556181688399
武乡,长治,112.80541300785681,36.8563949526836
闻喜,运城,111.22275563324825,35.36203539198431
卫星,鸡西,132.50014039569555,45.729126162315595
无锡新区,无锡,120.39854298866851,31.504385916777796
武义北,金华,119.855898711726,28.988433586408227
武义,金华,119.83720183000024,28.913988237163743
五原,巴彦淖尔,108.05655847852867,40.917508044053015
韦庄,渭南,109.94259500352793,34.97669395766403
武陟,焦作,113.45850878142049,35.09427858461897
湾沚南,芜湖,118.59145754680517,31.09866157872086
新安县,洛阳,112.16145848099322,34.724212466225474
许昌北,许昌,113.93645357546252,34.14848401845087
项城,周口,114.89697060472014,33.41875666520447
兴城西,葫芦岛,120.62211497077229,40.59884000940325
下城子,牡丹江,130.45301084308187,44.676988722229886
西渡,衡阳,112.43493302672773,27.008291969835184
喜德西,西昌,102.27148382916775,27.900580896263623
襄汾,临汾,111.4480213703911,35.885923586053885
信丰,赣州,114.91342000084893,25.403273699011578
襄汾西,临汾,111.34367716676024,35.84433777288319
信丰西,赣州,114.90656997218485,25.355889997149095
新干,吉安,115.40290272053,27.73824702532577
孝感,孝感,113.93595699217661,30.960591869334973
新干东,吉安,115.43297879746908,27.749289938786497
兴国西,赣州,115.28522703435607,26.318018963285514
夏格庄,青岛,120.4526979651514,36.65770794136215
宣化北,张家口,115.05593052572995,40.63957752928478
西湖东,惠州,114.4074319953941,23.09380100449745
新和,阿克苏,82.62521688073535,41.58072040295762
香河,廊坊,117.03969918682331,39.726411760016276
新华屯,大庆,124.63878195904935,46.15338293377702
新化,娄底,111.30991209454658,27.73347857898039
宣化,张家口,115.06087318230695,40.60420028300392
西华,周口,114.61587095809628,33.79972506050513
小河镇,安康,109.16365426361318,33.11768701408224
徐家店,烟台,121.00429204320945,37.0866269297769
峡江,吉安,115.34293022775375,27.604585109823237
新绛,运城,111.21648923367175,35.61623282057867
仙居南,台州,120.75988196138115,28.826203987794333
许家屯,大连,122.08771298657847,40.04656805443661
兴凯,鸡西,132.08072002596484,45.710379929937766
小榄,中山,113.27654198416542,22.6537940142265
香兰,佳木斯,129.7648111669533,46.6583783220413
西柳,鞍山,122.62911219540376,40.84965068024331
西林,伊春,129.3162188647692,47.48469865670034
新林,加格达奇,124.41957134002567,51.686628694849404
新立屯,锦州,122.1844969612068,42.026368914408515
兴隆县西,承德,117.4891544012775,40.419882192564465
西麻山,鸡西,116.42570503515906,39.90284507071749
咸宁北,咸宁,114.307888426272,29.90449836060511
兴宁,梅州,115.7349926132154,24.107403311282674
咸宁,咸宁,114.29513554227326,29.885191328233947
兴平,咸阳,108.49520060989816,34.29480786332546
西平,驻马店,114.04511404723827,33.38336433877462
西平西,东莞,113.75215046508,22.999739038546892
新青,伊春,129.53348025066677,48.29728620873589
浠水,浠水,115.24848204230207,30.438877962877264
徐水,保定,115.65142497372172,39.039191128845864
浠水南,浠水,115.24768021480386,30.41598267363419
杏树屯,大连,122.16222868625886,39.27078957785439
响水县,盐城,119.69477101653989,34.19768504406317
邢台,邢台,114.49871709755423,37.07670747308375
湘潭北,湘潭,112.96210828627281,27.67821325795035
仙桃西,仙桃,113.14632650652366,30.430772371903156
下台子,承德,117.74754461511748,40.60957347384221
小湾东,南涧,100.15201138928198,24.71647272789188
徐闻,湛江,110.15194616712004,20.352061871577313
西乌旗,兴安,110.67776211076786,25.605392408407507
修武西,焦作,113.43183593489601,35.216924436028584
新县,信阳,114.89546055315787,31.648630392593287
息县,信阳,114.83941167916831,32.178765777119125
湘乡,湘潭,112.5356970337153,27.75038496877184
萧县,宿州,116.9652029803725,34.17526202860544
新乡南,新乡,113.86431730741697,35.04846304602716
旬阳北,安康,109.30374842145517,32.84642629508227
咸阳北,咸阳,108.68080579945327,34.424645162300536
襄垣东,长治,113.08975904076318,36.54131387670109
兴业,玉林,109.91318096434378,22.74395800856492
新沂,徐州,118.35368003085824,34.3869037814219
新沂南,徐州,118.33804592176259,34.33500076591838
仙游,莆田,118.87821102212087,25.255902990070446
小扬气,加格达奇,124.14621481740444,50.414872526010036
襄垣,长治,113.04133902631712,36.51273218601045
夏邑县,商丘,116.03747095815979,34.41706511619443
新友谊,双鸭山,131.82148432697724,46.772388662143904
西哲里木,兴安,130.24554573859015,47.25871626948282
永安乡,鸡西,131.48427696735078,45.34503396863683
盐边,攀枝花,101.86152710812271,26.659422553112435
永城北,商丘,116.52644146420073,34.22135559211908
禹城东,德州,116.69814402853068,37.06931595491406
盐城大丰,盐城,120.31437239119744,33.17475207629813
盐池,吴忠,107.35494836844038,37.74023279013038
应城,孝感,113.57963953028576,30.928963336507216
宜城,襄阳,112.19057561681035,31.635904969130383
郓城,菏泽,115.90791437310259,35.60802884658211
晏城,德州,116.76446574467126,36.810413846143554
禹城,德州,116.64000695355263,36.930234027919276
阳澄湖,苏州,120.73052993565217,31.49350686995213
迎春,鸡西,132.95784600727842,46.04893484781367
虞城县,商丘,115.87125748964857,34.4128293833942
于都北,于都,115.59952248303074,26.263189803386595
英德,清远,113.44609050165698,24.16478511648004
云东海,佛山,112.85186751548032,23.22387755697099
永定,龙岩,116.75062643432992,24.740857436853464
阳东,阳江,112.16304900658999,21.96076196829866
永福南,桂林,110.00503593660851,25.00391450169554
阳高,大同,113.74590303441387,40.37233400042212
杨岗,鸡西,132.2954330089611,45.72242491613327
阳高南,大同,113.80771166367232,40.32141304338662
阳谷,聊城,115.81538360557235,36.10810585137211
友好,伊春,128.84868004175183,47.86430789575768
洋河,宿迁,118.37387007600886,33.796743110251995
元江,元江,102.01322620530637,23.7044973569749
余江,鹰潭,116.82509066107998,28.221070784729935
银浪,大庆,124.86112901176111,46.496676750733144
伊拉哈,黑河,125.17459200082548,48.828127582382905
鄢陵,许昌,114.14618796966005,34.07035902468495
义马,三门峡,111.9192884307636,34.72690115434168
云梦,孝感,113.7503085042959,31.04590132247687
沂南,临沂,118.625855910546,35.49329541138579
云南驿,大理,100.71072804171352,25.385087964552273
银瓶,东莞,114.16306873234261,22.972478737648114
乐清东,温州,120.9980688350703,28.202983988202757
永庆,延边,128.24843751983877,42.71337257503151
杨桥,邵阳,112.01375898512221,27.17445396309151
永仁,楚雄,101.71726095004838,26.05468362615639
颍上北,阜阳,116.21957176808992,32.684359739601305
野三关,恩施,110.36462872364562,30.668170372260683
阳朔,桂林,110.5746448128366,24.96571220416109
云山,惠州,114.4235580165817,23.116358854725593
沂水,临沂,118.73431704832907,35.64922529820593
颍上,阜阳,116.31312399881556,32.74563808854881
偃师,洛阳,112.80100726848313,34.734920189469385
月山,焦作,113.05899279569086,35.21686877507747
雁石南,龙岩,117.16231499856707,25.24833903322552
榆社西,晋中,112.80151319414635,37.12059854069581
永寿西,咸阳,108.12457448869161,34.7022063361601
鹰手营子,承德,117.66865767099499,40.555729473982694
源潭,清远,113.20828702475939,23.668286038041792
玉田南,唐山,117.7476602270366,39.89114161084517
伊通,四平,125.29435499942653,43.37709506636227
烟筒屯,大庆,124.16888697050983,47.00972808296325
野象谷,景洪,100.86182985556378,22.175054921197752
阳西,阳江,111.65035245558886,21.801855055380873
云县,临沧,100.13444125215702,24.4046124903429
阳信,滨州,117.62464689931409,37.57504568933235
应县,朔州,113.0698490872706,39.63123651964586
攸县,株洲,113.36120620048628,27.01703553338871
永修,九江,115.82301227010653,29.025930486291667
攸县南,株洲,113.34773296529933,26.84914873881441
洋县西,汉中,107.52995597840263,33.23295514929663
云阳,云阳,108.91339200785802,30.96072224054374
酉阳,酉阳,108.9681940207159,28.813473220927108
弋阳,上饶,117.45210431361544,28.417213200081626
余姚,宁波,121.16782595621494,30.06048226406905
余姚北,宁波,121.17481046121613,30.104551890815838
阳邑,邯郸,113.90959998986945,36.744121885859414
杨源,三明,116.80664746083016,25.849237372936294
宜州,河池,108.63396741854518,24.484595240188163
银盏,清远,113.13669593835148,23.55561121139816
耀州,铜川,108.9965712353683,34.91493691173175
